[{"CITY":"Minot", "CITY_ASCII":"Minot", "LAT":48.2375, "LNG":-101.278, "COUNTRY":"United States", "ISO2":"US", "ISO3":"USA", "STATE_PROVINCE":"NORTH DAKOTA", "CAPTIAL":"nan", "POPULATION":49425.0, "CITY_ID":1840000053, "STATE_ID":34},
 {"CITY":"Grand Forks", "CITY_ASCII":"Grand Forks", "LAT":47.9218, "LNG":-97.0886, "COUNTRY":"United States", "ISO2":"US", "ISO3":"USA", "STATE_PROVINCE":"NORTH DAKOTA", "CAPTIAL":"nan", "POPULATION":64748.0, "CITY_ID":1840000101, "STATE_ID":34},
 {"CITY":"Caribou", "CITY_ASCII":"Caribou", "LAT":46.8662, "LNG":-67.9919, "COUNTRY":"United States", "ISO2":"US", "ISO3":"USA", "STATE_PROVINCE":"MAINE", "CAPTIAL":"nan", "POPULATION":7593.0, "CITY_ID":1840000145, "STATE_ID":19},
 {"CITY":"Presque Isle", "CITY_ASCII":"Presque Isle", "LAT":46.6868, "LNG":-67.9874, "COUNTRY":"United States", "ISO2":"US", "ISO3":"USA", "STATE_PROVINCE":"MAINE", "CAPTIAL":"nan", "POPULATION":9007.0, "CITY_ID":1840000146, "STATE_ID":19},
 {"CITY":"Jamestown", "CITY_ASCII":"Jamestown", "LAT":46.9063, "LNG":-98.6936, "COUNTRY":"United States", "ISO2":"US", "ISO3":"USA", "STATE_PROVINCE":"NORTH DAKOTA", "CAPTIAL":"nan", "POPULATION":15084.0, "CITY_ID":1840000153, "STATE_ID":34},
 {"CITY":"Valley City", "CITY_ASCII":"Valley City", "LAT":46.9223, "LNG":-98.0055, "COUNTRY":"United States", "ISO2":"US", "ISO3":"USA", "STATE_PROVINCE":"NORTH DAKOTA", "CAPTIAL":"nan", "POPULATION":6423.0, "CITY_ID":1840000160, "STATE_ID":34},
 {"CITY":"Fargo", "CITY_ASCII":"Fargo", "LAT":46.8652, "LNG":-96.8292, "COUNTRY":"United States", "ISO2":"US", "ISO3":"USA", "STATE_PROVINCE":"NORTH DAKOTA", "CAPTIAL":"nan", "POPULATION":208675.0, "CITY_ID":1840000177, "STATE_ID":34},
 {"CITY":"Dickinson", "CITY_ASCII":"Dickinson", "LAT":46.8917, "LNG":-102.792, "COUNTRY":"United States", "ISO2":"US", "ISO3":"USA", "STATE_PROVINCE":"NORTH DAKOTA", "CAPTIAL":"nan", "POPULATION":23133.0, "CITY_ID":1840000192, "STATE_ID":34},
 {"CITY":"Mandan", "CITY_ASCII":"Mandan", "LAT":46.829, "LNG":-100.887, "COUNTRY":"United States", "ISO2":"US", "ISO3":"USA", "STATE_PROVINCE":"NORTH DAKOTA", "CAPTIAL":"nan", "POPULATION":22752.0, "CITY_ID":1840000199, "STATE_ID":34},
 {"CITY":"Wahpeton", "CITY_ASCII":"Wahpeton", "LAT":46.2722, "LNG":-96.6118, "COUNTRY":"United States", "ISO2":"US", "ISO3":"USA", "STATE_PROVINCE":"NORTH DAKOTA", "CAPTIAL":"nan", "POPULATION":11067.0, "CITY_ID":1840000228, "STATE_ID":34},
 {"CITY":"Bangor", "CITY_ASCII":"Bangor", "LAT":44.8322, "LNG":-68.7906, "COUNTRY":"United States", "ISO2":"US", "ISO3":"USA", "STATE_PROVINCE":"MAINE", "CAPTIAL":"nan", "POPULATION":59772.0, "CITY_ID":1840000238, "STATE_ID":19},
 {"CITY":"Brewer", "CITY_ASCII":"Brewer", "LAT":44.7835, "LNG":-68.7352, "COUNTRY":"United States", "ISO2":"US", "ISO3":"USA", "STATE_PROVINCE":"MAINE", "CAPTIAL":"nan", "POPULATION":9035.0, "CITY_ID":1840000239, "STATE_ID":19},
 {"CITY":"Old Town", "CITY_ASCII":"Old Town", "LAT":44.9491, "LNG":-68.7249, "COUNTRY":"United States", "ISO2":"US", "ISO3":"USA", "STATE_PROVINCE":"MAINE", "CAPTIAL":"nan", "POPULATION":7431.0, "CITY_ID":1840000240, "STATE_ID":19},
 {"CITY":"Chisago City", "CITY_ASCII":"Chisago City", "LAT":45.3474, "LNG":-92.9116, "COUNTRY":"United States", "ISO2":"US", "ISO3":"USA", "STATE_PROVINCE":"MINNESOTA", "CAPTIAL":"nan", "POPULATION":5224.0, "CITY_ID":1840000269, "STATE_ID":23},
 {"CITY":"Lake Hallie", "CITY_ASCII":"Lake Hallie", "LAT":44.8921, "LNG":-91.4199, "COUNTRY":"United States", "ISO2":"US", "ISO3":"USA", "STATE_PROVINCE":"WISCONSIN", "CAPTIAL":"nan", "POPULATION":6747.0, "CITY_ID":1840000279, "STATE_ID":49},
 {"CITY":"Ellsworth", "CITY_ASCII":"Ellsworth", "LAT":44.5847, "LNG":-68.4875, "COUNTRY":"United States", "ISO2":"US", "ISO3":"USA", "STATE_PROVINCE":"MAINE", "CAPTIAL":"nan", "POPULATION":8180.0, "CITY_ID":1840000281, "STATE_ID":19},
 {"CITY":"Plattsburgh", "CITY_ASCII":"Plattsburgh", "LAT":44.6951, "LNG":-73.4563, "COUNTRY":"United States", "ISO2":"US", "ISO3":"USA", "STATE_PROVINCE":"NEW YORK", "CAPTIAL":"nan", "POPULATION":28740.0, "CITY_ID":1840000296, "STATE_ID":32},
 {"CITY":"Ogdensburg", "CITY_ASCII":"Ogdensburg", "LAT":44.7088, "LNG":-75.4717, "COUNTRY":"United States", "ISO2":"US", "ISO3":"USA", "STATE_PROVINCE":"NEW YORK", "CAPTIAL":"nan", "POPULATION":10638.0, "CITY_ID":1840000297, "STATE_ID":32},
 {"CITY":"Belfast", "CITY_ASCII":"Belfast", "LAT":44.428, "LNG":-69.0325, "COUNTRY":"United States", "ISO2":"US", "ISO3":"USA", "STATE_PROVINCE":"MAINE", "CAPTIAL":"nan", "POPULATION":6679.0, "CITY_ID":1840000300, "STATE_ID":19},
 {"CITY":"Augusta", "CITY_ASCII":"Augusta", "LAT":44.3341, "LNG":-69.7319, "COUNTRY":"United States", "ISO2":"US", "ISO3":"USA", "STATE_PROVINCE":"MAINE", "CAPTIAL":"admin", "POPULATION":22116.0, "CITY_ID":1840000302, "STATE_ID":19},
 {"CITY":"Gardiner", "CITY_ASCII":"Gardiner", "LAT":44.191, "LNG":-69.7921, "COUNTRY":"United States", "ISO2":"US", "ISO3":"USA", "STATE_PROVINCE":"MAINE", "CAPTIAL":"nan", "POPULATION":5653.0, "CITY_ID":1840000303, "STATE_ID":19},
 {"CITY":"Waterville", "CITY_ASCII":"Waterville", "LAT":44.5441, "LNG":-69.6624, "COUNTRY":"United States", "ISO2":"US", "ISO3":"USA", "STATE_PROVINCE":"MAINE", "CAPTIAL":"nan", "POPULATION":27054.0, "CITY_ID":1840000305, "STATE_ID":19},
 {"CITY":"Bellevue", "CITY_ASCII":"Bellevue", "LAT":44.4593, "LNG":-87.9554, "COUNTRY":"United States", "ISO2":"US", "ISO3":"USA", "STATE_PROVINCE":"WISCONSIN", "CAPTIAL":"nan", "POPULATION":15944.0, "CITY_ID":1840000308, "STATE_ID":49},
 {"CITY":"Suamico", "CITY_ASCII":"Suamico", "LAT":44.6352, "LNG":-88.0664, "COUNTRY":"United States", "ISO2":"US", "ISO3":"USA", "STATE_PROVINCE":"WISCONSIN", "CAPTIAL":"nan", "POPULATION":13052.0, "CITY_ID":1840000309, "STATE_ID":49},
 {"CITY":"Pierre", "CITY_ASCII":"Pierre", "LAT":44.3748, "LNG":-100.321, "COUNTRY":"United States", "ISO2":"US", "ISO3":"USA", "STATE_PROVINCE":"SOUTH DAKOTA", "CAPTIAL":"admin", "POPULATION":14659.0, "CITY_ID":1840000313, "STATE_ID":41},
 {"CITY":"Auburn", "CITY_ASCII":"Auburn", "LAT":44.085, "LNG":-70.2492, "COUNTRY":"United States", "ISO2":"US", "ISO3":"USA", "STATE_PROVINCE":"MAINE", "CAPTIAL":"nan", "POPULATION":23414.0, "CITY_ID":1840000319, "STATE_ID":19},
 {"CITY":"Lewiston", "CITY_ASCII":"Lewiston", "LAT":44.0915, "LNG":-70.1681, "COUNTRY":"United States", "ISO2":"US", "ISO3":"USA", "STATE_PROVINCE":"MAINE", "CAPTIAL":"nan", "POPULATION":58802.0, "CITY_ID":1840000320, "STATE_ID":19},
 {"CITY":"Lake City", "CITY_ASCII":"Lake City", "LAT":44.4453, "LNG":-92.2796, "COUNTRY":"United States", "ISO2":"US", "ISO3":"USA", "STATE_PROVINCE":"MINNESOTA", "CAPTIAL":"nan", "POPULATION":5162.0, "CITY_ID":1840000321, "STATE_ID":23},
 {"CITY":"Rockland", "CITY_ASCII":"Rockland", "LAT":44.1274, "LNG":-69.1369, "COUNTRY":"United States", "ISO2":"US", "ISO3":"USA", "STATE_PROVINCE":"MAINE", "CAPTIAL":"nan", "POPULATION":8616.0, "CITY_ID":1840000322, "STATE_ID":19},
 {"CITY":"Portland", "CITY_ASCII":"Portland", "LAT":43.6773, "LNG":-70.2715, "COUNTRY":"United States", "ISO2":"US", "ISO3":"USA", "STATE_PROVINCE":"MAINE", "CAPTIAL":"nan", "POPULATION":203969.0, "CITY_ID":1840000327, "STATE_ID":19},
 {"CITY":"South Portland", "CITY_ASCII":"South Portland", "LAT":43.631, "LNG":-70.2895, "COUNTRY":"United States", "ISO2":"US", "ISO3":"USA", "STATE_PROVINCE":"MAINE", "CAPTIAL":"nan", "POPULATION":25532.0, "CITY_ID":1840000328, "STATE_ID":19},
 {"CITY":"Westbrook", "CITY_ASCII":"Westbrook", "LAT":43.6954, "LNG":-70.3539, "COUNTRY":"United States", "ISO2":"US", "ISO3":"USA", "STATE_PROVINCE":"MAINE", "CAPTIAL":"nan", "POPULATION":19074.0, "CITY_ID":1840000329, "STATE_ID":19},
 {"CITY":"Bath", "CITY_ASCII":"Bath", "LAT":43.9346, "LNG":-69.8346, "COUNTRY":"United States", "ISO2":"US", "ISO3":"USA", "STATE_PROVINCE":"MAINE", "CAPTIAL":"nan", "POPULATION":8338.0, "CITY_ID":1840000332, "STATE_ID":19},
 {"CITY":"Biddeford", "CITY_ASCII":"Biddeford", "LAT":43.4674, "LNG":-70.4512, "COUNTRY":"United States", "ISO2":"US", "ISO3":"USA", "STATE_PROVINCE":"MAINE", "CAPTIAL":"nan", "POPULATION":21504.0, "CITY_ID":1840000342, "STATE_ID":19},
 {"CITY":"Saco", "CITY_ASCII":"Saco", "LAT":43.539, "LNG":-70.4624, "COUNTRY":"United States", "ISO2":"US", "ISO3":"USA", "STATE_PROVINCE":"MAINE", "CAPTIAL":"nan", "POPULATION":19964.0, "CITY_ID":1840000343, "STATE_ID":19},
 {"CITY":"Glens Falls", "CITY_ASCII":"Glens Falls", "LAT":43.3109, "LNG":-73.6459, "COUNTRY":"United States", "ISO2":"US", "ISO3":"USA", "STATE_PROVINCE":"NEW YORK", "CAPTIAL":"nan", "POPULATION":63499.0, "CITY_ID":1840000345, "STATE_ID":32},
 {"CITY":"Fulton", "CITY_ASCII":"Fulton", "LAT":43.3171, "LNG":-76.4162, "COUNTRY":"United States", "ISO2":"US", "ISO3":"USA", "STATE_PROVINCE":"NEW YORK", "CAPTIAL":"nan", "POPULATION":11102.0, "CITY_ID":1840000347, "STATE_ID":32},
 {"CITY":"Oswego", "CITY_ASCII":"Oswego", "LAT":43.4516, "LNG":-76.5005, "COUNTRY":"United States", "ISO2":"US", "ISO3":"USA", "STATE_PROVINCE":"NEW YORK", "CAPTIAL":"nan", "POPULATION":37420.0, "CITY_ID":1840000348, "STATE_ID":32},
 {"CITY":"Rome", "CITY_ASCII":"Rome", "LAT":43.226, "LNG":-75.4909, "COUNTRY":"United States", "ISO2":"US", "ISO3":"USA", "STATE_PROVINCE":"NEW YORK", "CAPTIAL":"nan", "POPULATION":32148.0, "CITY_ID":1840000349, "STATE_ID":32},
 {"CITY":"Algona", "CITY_ASCII":"Algona", "LAT":43.0743, "LNG":-94.2302, "COUNTRY":"United States", "ISO2":"US", "ISO3":"USA", "STATE_PROVINCE":"IOWA", "CAPTIAL":"nan", "POPULATION":5397.0, "CITY_ID":1840000352, "STATE_ID":15},
 {"CITY":"Whitehall", "CITY_ASCII":"Whitehall", "LAT":43.4003, "LNG":-86.3406, "COUNTRY":"United States", "ISO2":"US", "ISO3":"USA", "STATE_PROVINCE":"MICHIGAN", "CAPTIAL":"nan", "POPULATION":11061.0, "CITY_ID":1840000366, "STATE_ID":22},
 {"CITY":"Auburn", "CITY_ASCII":"Auburn", "LAT":42.9338, "LNG":-76.5684, "COUNTRY":"United States", "ISO2":"US", "ISO3":"USA", "STATE_PROVINCE":"NEW YORK", "CAPTIAL":"nan", "POPULATION":30507.0, "CITY_ID":1840000367, "STATE_ID":32},
 {"CITY":"Mechanicville", "CITY_ASCII":"Mechanicville", "LAT":42.9037, "LNG":-73.6895, "COUNTRY":"United States", "ISO2":"US", "ISO3":"USA", "STATE_PROVINCE":"NEW YORK", "CAPTIAL":"nan", "POPULATION":5037.0, "CITY_ID":1840000368, "STATE_ID":32},
 {"CITY":"Saratoga Springs", "CITY_ASCII":"Saratoga Springs", "LAT":43.0674, "LNG":-73.7775, "COUNTRY":"United States", "ISO2":"US", "ISO3":"USA", "STATE_PROVINCE":"NEW YORK", "CAPTIAL":"nan", "POPULATION":68028.0, "CITY_ID":1840000369, "STATE_ID":32},
 {"CITY":"Lockport", "CITY_ASCII":"Lockport", "LAT":43.1698, "LNG":-78.6956, "COUNTRY":"United States", "ISO2":"US", "ISO3":"USA", "STATE_PROVINCE":"NEW YORK", "CAPTIAL":"nan", "POPULATION":34561.0, "CITY_ID":1840000370, "STATE_ID":32},
 {"CITY":"Niagara Falls", "CITY_ASCII":"Niagara Falls", "LAT":43.0921, "LNG":-79.0147, "COUNTRY":"United States", "ISO2":"US", "ISO3":"USA", "STATE_PROVINCE":"NEW YORK", "CAPTIAL":"nan", "POPULATION":47720.0, "CITY_ID":1840000371, "STATE_ID":32},
 {"CITY":"North Tonawanda", "CITY_ASCII":"North Tonawanda", "LAT":43.0457, "LNG":-78.8659, "COUNTRY":"United States", "ISO2":"US", "ISO3":"USA", "STATE_PROVINCE":"NEW YORK", "CAPTIAL":"nan", "POPULATION":30245.0, "CITY_ID":1840000372, "STATE_ID":32},
 {"CITY":"Rochester", "CITY_ASCII":"Rochester", "LAT":43.168, "LNG":-77.6162, "COUNTRY":"United States", "ISO2":"US", "ISO3":"USA", "STATE_PROVINCE":"NEW YORK", "CAPTIAL":"nan", "POPULATION":703952.0, "CITY_ID":1840000373, "STATE_ID":32},
 {"CITY":"Wyoming", "CITY_ASCII":"Wyoming", "LAT":42.8909, "LNG":-85.7066, "COUNTRY":"United States", "ISO2":"US", "ISO3":"USA", "STATE_PROVINCE":"MICHIGAN", "CAPTIAL":"nan", "POPULATION":75667.0, "CITY_ID":1840000374, "STATE_ID":22},
 {"CITY":"Gloversville", "CITY_ASCII":"Gloversville", "LAT":43.0491, "LNG":-74.3465, "COUNTRY":"United States", "ISO2":"US", "ISO3":"USA", "STATE_PROVINCE":"NEW YORK", "CAPTIAL":"nan", "POPULATION":27512.0, "CITY_ID":1840000375, "STATE_ID":32},
 {"CITY":"Johnstown", "CITY_ASCII":"Johnstown", "LAT":43.0073, "LNG":-74.3755, "COUNTRY":"United States", "ISO2":"US", "ISO3":"USA", "STATE_PROVINCE":"NEW YORK", "CAPTIAL":"nan", "POPULATION":8230.0, "CITY_ID":1840000376, "STATE_ID":32},
 {"CITY":"Fairmount", "CITY_ASCII":"Fairmount", "LAT":43.0414, "LNG":-76.2485, "COUNTRY":"United States", "ISO2":"US", "ISO3":"USA", "STATE_PROVINCE":"NEW YORK", "CAPTIAL":"nan", "POPULATION":10092.0, "CITY_ID":1840000377, "STATE_ID":32},
 {"CITY":"Syracuse", "CITY_ASCII":"Syracuse", "LAT":43.0409, "LNG":-76.1438, "COUNTRY":"United States", "ISO2":"US", "ISO3":"USA", "STATE_PROVINCE":"NEW YORK", "CAPTIAL":"nan", "POPULATION":404223.0, "CITY_ID":1840000378, "STATE_ID":32},
 {"CITY":"Clear Lake", "CITY_ASCII":"Clear Lake", "LAT":43.1346, "LNG":-93.374, "COUNTRY":"United States", "ISO2":"US", "ISO3":"USA", "STATE_PROVINCE":"IOWA", "CAPTIAL":"nan", "POPULATION":7711.0, "CITY_ID":1840000379, "STATE_ID":15},
 {"CITY":"Mason City", "CITY_ASCII":"Mason City", "LAT":43.1487, "LNG":-93.1998, "COUNTRY":"United States", "ISO2":"US", "ISO3":"USA", "STATE_PROVINCE":"IOWA", "CAPTIAL":"nan", "POPULATION":26931.0, "CITY_ID":1840000380, "STATE_ID":15},
 {"CITY":"Spencer", "CITY_ASCII":"Spencer", "LAT":43.1468, "LNG":-95.1534, "COUNTRY":"United States", "ISO2":"US", "ISO3":"USA", "STATE_PROVINCE":"IOWA", "CAPTIAL":"nan", "POPULATION":10952.0, "CITY_ID":1840000381, "STATE_ID":15},
 {"CITY":"Charles City", "CITY_ASCII":"Charles City", "LAT":43.0644, "LNG":-92.6745, "COUNTRY":"United States", "ISO2":"US", "ISO3":"USA", "STATE_PROVINCE":"IOWA", "CAPTIAL":"nan", "POPULATION":7359.0, "CITY_ID":1840000382, "STATE_ID":15},
 {"CITY":"Zeeland", "CITY_ASCII":"Zeeland", "LAT":42.8139, "LNG":-86.0129, "COUNTRY":"United States", "ISO2":"US", "ISO3":"USA", "STATE_PROVINCE":"MICHIGAN", "CAPTIAL":"nan", "POPULATION":5536.0, "CITY_ID":1840000383, "STATE_ID":22},
 {"CITY":"Oneida", "CITY_ASCII":"Oneida", "LAT":43.0769, "LNG":-75.6621, "COUNTRY":"United States", "ISO2":"US", "ISO3":"USA", "STATE_PROVINCE":"NEW YORK", "CAPTIAL":"nan", "POPULATION":20828.0, "CITY_ID":1840000384, "STATE_ID":32},
 {"CITY":"Batavia", "CITY_ASCII":"Batavia", "LAT":42.9987, "LNG":-78.1802, "COUNTRY":"United States", "ISO2":"US", "ISO3":"USA", "STATE_PROVINCE":"NEW YORK", "CAPTIAL":"nan", "POPULATION":16581.0, "CITY_ID":1840000385, "STATE_ID":32},
 {"CITY":"Buffalo", "CITY_ASCII":"Buffalo", "LAT":42.9016, "LNG":-78.8487, "COUNTRY":"United States", "ISO2":"US", "ISO3":"USA", "STATE_PROVINCE":"NEW YORK", "CAPTIAL":"nan", "POPULATION":914341.0, "CITY_ID":1840000386, "STATE_ID":32},
 {"CITY":"Lackawanna", "CITY_ASCII":"Lackawanna", "LAT":42.8182, "LNG":-78.8326, "COUNTRY":"United States", "ISO2":"US", "ISO3":"USA", "STATE_PROVINCE":"NEW YORK", "CAPTIAL":"nan", "POPULATION":17720.0, "CITY_ID":1840000387, "STATE_ID":32},
 {"CITY":"Amsterdam", "CITY_ASCII":"Amsterdam", "LAT":42.942, "LNG":-74.1907, "COUNTRY":"United States", "ISO2":"US", "ISO3":"USA", "STATE_PROVINCE":"NEW YORK", "CAPTIAL":"nan", "POPULATION":21241.0, "CITY_ID":1840000391, "STATE_ID":32},
 {"CITY":"Canandaigua", "CITY_ASCII":"Canandaigua", "LAT":42.8607, "LNG":-77.3183, "COUNTRY":"United States", "ISO2":"US", "ISO3":"USA", "STATE_PROVINCE":"NEW YORK", "CAPTIAL":"nan", "POPULATION":11082.0, "CITY_ID":1840000392, "STATE_ID":32},
 {"CITY":"Geneva", "CITY_ASCII":"Geneva", "LAT":42.8644, "LNG":-76.9827, "COUNTRY":"United States", "ISO2":"US", "ISO3":"USA", "STATE_PROVINCE":"NEW YORK", "CAPTIAL":"nan", "POPULATION":28563.0, "CITY_ID":1840000393, "STATE_ID":32},
 {"CITY":"Rensselaer", "CITY_ASCII":"Rensselaer", "LAT":42.6465, "LNG":-73.7328, "COUNTRY":"United States", "ISO2":"US", "ISO3":"USA", "STATE_PROVINCE":"NEW YORK", "CAPTIAL":"nan", "POPULATION":9171.0, "CITY_ID":1840000394, "STATE_ID":32},
 {"CITY":"Schenectady", "CITY_ASCII":"Schenectady", "LAT":42.8025, "LNG":-73.9276, "COUNTRY":"United States", "ISO2":"US", "ISO3":"USA", "STATE_PROVINCE":"NEW YORK", "CAPTIAL":"nan", "POPULATION":65273.0, "CITY_ID":1840000395, "STATE_ID":32},
 {"CITY":"Storm Lake", "CITY_ASCII":"Storm Lake", "LAT":42.6431, "LNG":-95.1969, "COUNTRY":"United States", "ISO2":"US", "ISO3":"USA", "STATE_PROVINCE":"IOWA", "CAPTIAL":"nan", "POPULATION":11066.0, "CITY_ID":1840000397, "STATE_ID":15},
 {"CITY":"Humboldt", "CITY_ASCII":"Humboldt", "LAT":42.7232, "LNG":-94.2245, "COUNTRY":"United States", "ISO2":"US", "ISO3":"USA", "STATE_PROVINCE":"IOWA", "CAPTIAL":"nan", "POPULATION":5128.0, "CITY_ID":1840000400, "STATE_ID":15},
 {"CITY":"Waverly", "CITY_ASCII":"Waverly", "LAT":42.725, "LNG":-92.4708, "COUNTRY":"United States", "ISO2":"US", "ISO3":"USA", "STATE_PROVINCE":"IOWA", "CAPTIAL":"nan", "POPULATION":10198.0, "CITY_ID":1840000404, "STATE_ID":15},
 {"CITY":"Oneonta", "CITY_ASCII":"Oneonta", "LAT":42.4551, "LNG":-75.0666, "COUNTRY":"United States", "ISO2":"US", "ISO3":"USA", "STATE_PROVINCE":"NEW YORK", "CAPTIAL":"nan", "POPULATION":17236.0, "CITY_ID":1840000405, "STATE_ID":32},
 {"CITY":"Wixom", "CITY_ASCII":"Wixom", "LAT":42.5244, "LNG":-83.5346, "COUNTRY":"United States", "ISO2":"US", "ISO3":"USA", "STATE_PROVINCE":"MICHIGAN", "CAPTIAL":"nan", "POPULATION":14049.0, "CITY_ID":1840000407, "STATE_ID":22},
 {"CITY":"Lawrence", "CITY_ASCII":"Lawrence", "LAT":42.7003, "LNG":-71.1626, "COUNTRY":"United States", "ISO2":"US", "ISO3":"USA", "STATE_PROVINCE":"MASSACHUSETTS", "CAPTIAL":"nan", "POPULATION":80028.0, "CITY_ID":1840000408, "STATE_ID":21},
 {"CITY":"Lynn", "CITY_ASCII":"Lynn", "LAT":42.4779, "LNG":-70.9663, "COUNTRY":"United States", "ISO2":"US", "ISO3":"USA", "STATE_PROVINCE":"MASSACHUSETTS", "CAPTIAL":"nan", "POPULATION":94299.0, "CITY_ID":1840000409, "STATE_ID":21},
 {"CITY":"Salem", "CITY_ASCII":"Salem", "LAT":42.5129, "LNG":-70.902, "COUNTRY":"United States", "ISO2":"US", "ISO3":"USA", "STATE_PROVINCE":"MASSACHUSETTS", "CAPTIAL":"nan", "POPULATION":43226.0, "CITY_ID":1840000410, "STATE_ID":21},
 {"CITY":"Beverly", "CITY_ASCII":"Beverly", "LAT":42.5681, "LNG":-70.8627, "COUNTRY":"United States", "ISO2":"US", "ISO3":"USA", "STATE_PROVINCE":"MASSACHUSETTS", "CAPTIAL":"nan", "POPULATION":42174.0, "CITY_ID":1840000411, "STATE_ID":21},
 {"CITY":"Gloucester", "CITY_ASCII":"Gloucester", "LAT":42.626, "LNG":-70.6897, "COUNTRY":"United States", "ISO2":"US", "ISO3":"USA", "STATE_PROVINCE":"MASSACHUSETTS", "CAPTIAL":"nan", "POPULATION":30430.0, "CITY_ID":1840000412, "STATE_ID":21},
 {"CITY":"Newburyport", "CITY_ASCII":"Newburyport", "LAT":42.8124, "LNG":-70.8878, "COUNTRY":"United States", "ISO2":"US", "ISO3":"USA", "STATE_PROVINCE":"MASSACHUSETTS", "CAPTIAL":"nan", "POPULATION":18289.0, "CITY_ID":1840000413, "STATE_ID":21},
 {"CITY":"Peabody", "CITY_ASCII":"Peabody", "LAT":42.5335, "LNG":-70.9724, "COUNTRY":"United States", "ISO2":"US", "ISO3":"USA", "STATE_PROVINCE":"MASSACHUSETTS", "CAPTIAL":"nan", "POPULATION":53070.0, "CITY_ID":1840000414, "STATE_ID":21},
 {"CITY":"Albany", "CITY_ASCII":"Albany", "LAT":42.6664, "LNG":-73.7987, "COUNTRY":"United States", "ISO2":"US", "ISO3":"USA", "STATE_PROVINCE":"NEW YORK", "CAPTIAL":"admin", "POPULATION":586383.0, "CITY_ID":1840000417, "STATE_ID":32},
 {"CITY":"Cohoes", "CITY_ASCII":"Cohoes", "LAT":42.7732, "LNG":-73.7077, "COUNTRY":"United States", "ISO2":"US", "ISO3":"USA", "STATE_PROVINCE":"NEW YORK", "CAPTIAL":"nan", "POPULATION":16687.0, "CITY_ID":1840000418, "STATE_ID":32},
 {"CITY":"Cortland", "CITY_ASCII":"Cortland", "LAT":42.6004, "LNG":-76.1784, "COUNTRY":"United States", "ISO2":"US", "ISO3":"USA", "STATE_PROVINCE":"NEW YORK", "CAPTIAL":"nan", "POPULATION":26729.0, "CITY_ID":1840000419, "STATE_ID":32},
 {"CITY":"Williamston", "CITY_ASCII":"Williamston", "LAT":42.6835, "LNG":-84.2836, "COUNTRY":"United States", "ISO2":"US", "ISO3":"USA", "STATE_PROVINCE":"MICHIGAN", "CAPTIAL":"nan", "POPULATION":6498.0, "CITY_ID":1840000420, "STATE_ID":22},
 {"CITY":"North Adams", "CITY_ASCII":"North Adams", "LAT":42.6844, "LNG":-73.1166, "COUNTRY":"United States", "ISO2":"US", "ISO3":"USA", "STATE_PROVINCE":"MASSACHUSETTS", "CAPTIAL":"nan", "POPULATION":17153.0, "CITY_ID":1840000423, "STATE_ID":21},
 {"CITY":"Norwich", "CITY_ASCII":"Norwich", "LAT":42.5333, "LNG":-75.5227, "COUNTRY":"United States", "ISO2":"US", "ISO3":"USA", "STATE_PROVINCE":"NEW YORK", "CAPTIAL":"nan", "POPULATION":7518.0, "CITY_ID":1840000424, "STATE_ID":32},
 {"CITY":"Everett", "CITY_ASCII":"Everett", "LAT":42.4064, "LNG":-71.0545, "COUNTRY":"United States", "ISO2":"US", "ISO3":"USA", "STATE_PROVINCE":"MASSACHUSETTS", "CAPTIAL":"nan", "POPULATION":46451.0, "CITY_ID":1840000425, "STATE_ID":21},
 {"CITY":"Lowell", "CITY_ASCII":"Lowell", "LAT":42.6389, "LNG":-71.3217, "COUNTRY":"United States", "ISO2":"US", "ISO3":"USA", "STATE_PROVINCE":"MASSACHUSETTS", "CAPTIAL":"nan", "POPULATION":110997.0, "CITY_ID":1840000426, "STATE_ID":21},
 {"CITY":"Marlborough", "CITY_ASCII":"Marlborough", "LAT":42.3494, "LNG":-71.5468, "COUNTRY":"United States", "ISO2":"US", "ISO3":"USA", "STATE_PROVINCE":"MASSACHUSETTS", "CAPTIAL":"nan", "POPULATION":39597.0, "CITY_ID":1840000427, "STATE_ID":21},
 {"CITY":"Waltham", "CITY_ASCII":"Waltham", "LAT":42.3889, "LNG":-71.2423, "COUNTRY":"United States", "ISO2":"US", "ISO3":"USA", "STATE_PROVINCE":"MASSACHUSETTS", "CAPTIAL":"nan", "POPULATION":62495.0, "CITY_ID":1840000428, "STATE_ID":21},
 {"CITY":"Cambridge", "CITY_ASCII":"Cambridge", "LAT":42.3759, "LNG":-71.1185, "COUNTRY":"United States", "ISO2":"US", "ISO3":"USA", "STATE_PROVINCE":"MASSACHUSETTS", "CAPTIAL":"nan", "POPULATION":118927.0, "CITY_ID":1840000429, "STATE_ID":21},
 {"CITY":"Malden", "CITY_ASCII":"Malden", "LAT":42.4305, "LNG":-71.0576, "COUNTRY":"United States", "ISO2":"US", "ISO3":"USA", "STATE_PROVINCE":"MASSACHUSETTS", "CAPTIAL":"nan", "POPULATION":60470.0, "CITY_ID":1840000430, "STATE_ID":21},
 {"CITY":"Medford", "CITY_ASCII":"Medford", "LAT":42.4234, "LNG":-71.1087, "COUNTRY":"United States", "ISO2":"US", "ISO3":"USA", "STATE_PROVINCE":"MASSACHUSETTS", "CAPTIAL":"nan", "POPULATION":57341.0, "CITY_ID":1840000431, "STATE_ID":21},
 {"CITY":"Melrose", "CITY_ASCII":"Melrose", "LAT":42.4556, "LNG":-71.059, "COUNTRY":"United States", "ISO2":"US", "ISO3":"USA", "STATE_PROVINCE":"MASSACHUSETTS", "CAPTIAL":"nan", "POPULATION":28016.0, "CITY_ID":1840000432, "STATE_ID":21},
 {"CITY":"Newton", "CITY_ASCII":"Newton", "LAT":42.3316, "LNG":-71.2085, "COUNTRY":"United States", "ISO2":"US", "ISO3":"USA", "STATE_PROVINCE":"MASSACHUSETTS", "CAPTIAL":"nan", "POPULATION":88414.0, "CITY_ID":1840000433, "STATE_ID":21},
 {"CITY":"Worcester", "CITY_ASCII":"Worcester", "LAT":42.2705, "LNG":-71.8079, "COUNTRY":"United States", "ISO2":"US", "ISO3":"USA", "STATE_PROVINCE":"MASSACHUSETTS", "CAPTIAL":"nan", "POPULATION":498328.0, "CITY_ID":1840000434, "STATE_ID":21},
 {"CITY":"Fitchburg", "CITY_ASCII":"Fitchburg", "LAT":42.5912, "LNG":-71.8156, "COUNTRY":"United States", "ISO2":"US", "ISO3":"USA", "STATE_PROVINCE":"MASSACHUSETTS", "CAPTIAL":"nan", "POPULATION":40638.0, "CITY_ID":1840000435, "STATE_ID":21},
 {"CITY":"Gardner", "CITY_ASCII":"Gardner", "LAT":42.5845, "LNG":-71.9867, "COUNTRY":"United States", "ISO2":"US", "ISO3":"USA", "STATE_PROVINCE":"MASSACHUSETTS", "CAPTIAL":"nan", "POPULATION":20683.0, "CITY_ID":1840000436, "STATE_ID":21},
 {"CITY":"Leominster", "CITY_ASCII":"Leominster", "LAT":42.5209, "LNG":-71.7717, "COUNTRY":"United States", "ISO2":"US", "ISO3":"USA", "STATE_PROVINCE":"MASSACHUSETTS", "CAPTIAL":"nan", "POPULATION":119690.0, "CITY_ID":1840000437, "STATE_ID":21},
 {"CITY":"Dubuque", "CITY_ASCII":"Dubuque", "LAT":42.5008, "LNG":-90.7067, "COUNTRY":"United States", "ISO2":"US", "ISO3":"USA", "STATE_PROVINCE":"IOWA", "CAPTIAL":"nan", "POPULATION":68109.0, "CITY_ID":1840000438, "STATE_ID":15},
 {"CITY":"Fort Dodge", "CITY_ASCII":"Fort Dodge", "LAT":42.5098, "LNG":-94.1751, "COUNTRY":"United States", "ISO2":"US", "ISO3":"USA", "STATE_PROVINCE":"IOWA", "CAPTIAL":"nan", "POPULATION":23888.0, "CITY_ID":1840000439, "STATE_ID":15},
 {"CITY":"Waterloo", "CITY_ASCII":"Waterloo", "LAT":42.492, "LNG":-92.3522, "COUNTRY":"United States", "ISO2":"US", "ISO3":"USA", "STATE_PROVINCE":"IOWA", "CAPTIAL":"nan", "POPULATION":111631.0, "CITY_ID":1840000440, "STATE_ID":15},
 {"CITY":"Ithaca", "CITY_ASCII":"Ithaca", "LAT":42.4442, "LNG":-76.5032, "COUNTRY":"United States", "ISO2":"US", "ISO3":"USA", "STATE_PROVINCE":"NEW YORK", "CAPTIAL":"nan", "POPULATION":55137.0, "CITY_ID":1840000442, "STATE_ID":32},
 {"CITY":"Corning", "CITY_ASCII":"Corning", "LAT":42.147, "LNG":-77.0561, "COUNTRY":"United States", "ISO2":"US", "ISO3":"USA", "STATE_PROVINCE":"NEW YORK", "CAPTIAL":"nan", "POPULATION":19296.0, "CITY_ID":1840000443, "STATE_ID":32},
 {"CITY":"Hornell", "CITY_ASCII":"Hornell", "LAT":42.3332, "LNG":-77.6633, "COUNTRY":"United States", "ISO2":"US", "ISO3":"USA", "STATE_PROVINCE":"NEW YORK", "CAPTIAL":"nan", "POPULATION":10661.0, "CITY_ID":1840000444, "STATE_ID":32},
 {"CITY":"Dunkirk", "CITY_ASCII":"Dunkirk", "LAT":42.4803, "LNG":-79.3323, "COUNTRY":"United States", "ISO2":"US", "ISO3":"USA", "STATE_PROVINCE":"NEW YORK", "CAPTIAL":"nan", "POPULATION":23874.0, "CITY_ID":1840000445, "STATE_ID":32},
 {"CITY":"Jamestown", "CITY_ASCII":"Jamestown", "LAT":42.0975, "LNG":-79.2366, "COUNTRY":"United States", "ISO2":"US", "ISO3":"USA", "STATE_PROVINCE":"NEW YORK", "CAPTIAL":"nan", "POPULATION":40493.0, "CITY_ID":1840000446, "STATE_ID":32},
 {"CITY":"Sioux City", "CITY_ASCII":"Sioux City", "LAT":42.4959, "LNG":-96.3901, "COUNTRY":"United States", "ISO2":"US", "ISO3":"USA", "STATE_PROVINCE":"IOWA", "CAPTIAL":"nan", "POPULATION":106455.0, "CITY_ID":1840000447, "STATE_ID":15},
 {"CITY":"Webster City", "CITY_ASCII":"Webster City", "LAT":42.4623, "LNG":-93.8167, "COUNTRY":"United States", "ISO2":"US", "ISO3":"USA", "STATE_PROVINCE":"IOWA", "CAPTIAL":"nan", "POPULATION":7671.0, "CITY_ID":1840000449, "STATE_ID":15},
 {"CITY":"Northampton", "CITY_ASCII":"Northampton", "LAT":42.3266, "LNG":-72.6745, "COUNTRY":"United States", "ISO2":"US", "ISO3":"USA", "STATE_PROVINCE":"MASSACHUSETTS", "CAPTIAL":"nan", "POPULATION":28451.0, "CITY_ID":1840000451, "STATE_ID":21},
 {"CITY":"Olean", "CITY_ASCII":"Olean", "LAT":42.0819, "LNG":-78.4321, "COUNTRY":"United States", "ISO2":"US", "ISO3":"USA", "STATE_PROVINCE":"NEW YORK", "CAPTIAL":"nan", "POPULATION":20755.0, "CITY_ID":1840000452, "STATE_ID":32},
 {"CITY":"Salamanca", "CITY_ASCII":"Salamanca", "LAT":42.1631, "LNG":-78.7233, "COUNTRY":"United States", "ISO2":"US", "ISO3":"USA", "STATE_PROVINCE":"NEW YORK", "CAPTIAL":"nan", "POPULATION":5402.0, "CITY_ID":1840000453, "STATE_ID":32},
 {"CITY":"Hudson", "CITY_ASCII":"Hudson", "LAT":42.2515, "LNG":-73.7859, "COUNTRY":"United States", "ISO2":"US", "ISO3":"USA", "STATE_PROVINCE":"NEW YORK", "CAPTIAL":"nan", "POPULATION":10413.0, "CITY_ID":1840000454, "STATE_ID":32},
 {"CITY":"Boston", "CITY_ASCII":"Boston", "LAT":42.3188, "LNG":-71.0846, "COUNTRY":"United States", "ISO2":"US", "ISO3":"USA", "STATE_PROVINCE":"MASSACHUSETTS", "CAPTIAL":"admin", "POPULATION":4688350.0, "CITY_ID":1840000455, "STATE_ID":21},
 {"CITY":"Chelsea", "CITY_ASCII":"Chelsea", "LAT":42.3959, "LNG":-71.0325, "COUNTRY":"United States", "ISO2":"US", "ISO3":"USA", "STATE_PROVINCE":"MASSACHUSETTS", "CAPTIAL":"nan", "POPULATION":39690.0, "CITY_ID":1840000456, "STATE_ID":21},
 {"CITY":"Revere", "CITY_ASCII":"Revere", "LAT":42.4192, "LNG":-71.0036, "COUNTRY":"United States", "ISO2":"US", "ISO3":"USA", "STATE_PROVINCE":"MASSACHUSETTS", "CAPTIAL":"nan", "POPULATION":53073.0, "CITY_ID":1840000457, "STATE_ID":21},
 {"CITY":"Ypsilanti", "CITY_ASCII":"Ypsilanti", "LAT":42.2437, "LNG":-83.6205, "COUNTRY":"United States", "ISO2":"US", "ISO3":"USA", "STATE_PROVINCE":"MICHIGAN", "CAPTIAL":"nan", "POPULATION":20171.0, "CITY_ID":1840000459, "STATE_ID":22},
 {"CITY":"Binghamton", "CITY_ASCII":"Binghamton", "LAT":42.1014, "LNG":-75.9093, "COUNTRY":"United States", "ISO2":"US", "ISO3":"USA", "STATE_PROVINCE":"NEW YORK", "CAPTIAL":"nan", "POPULATION":148145.0, "CITY_ID":1840000460, "STATE_ID":32},
 {"CITY":"Quincy", "CITY_ASCII":"Quincy", "LAT":42.2516, "LNG":-71.0183, "COUNTRY":"United States", "ISO2":"US", "ISO3":"USA", "STATE_PROVINCE":"MASSACHUSETTS", "CAPTIAL":"nan", "POPULATION":94470.0, "CITY_ID":1840000461, "STATE_ID":21},
 {"CITY":"Chicopee", "CITY_ASCII":"Chicopee", "LAT":42.1764, "LNG":-72.5719, "COUNTRY":"United States", "ISO2":"US", "ISO3":"USA", "STATE_PROVINCE":"MASSACHUSETTS", "CAPTIAL":"nan", "POPULATION":55126.0, "CITY_ID":1840000462, "STATE_ID":21},
 {"CITY":"Westfield", "CITY_ASCII":"Westfield", "LAT":42.1382, "LNG":-72.7561, "COUNTRY":"United States", "ISO2":"US", "ISO3":"USA", "STATE_PROVINCE":"MASSACHUSETTS", "CAPTIAL":"nan", "POPULATION":41204.0, "CITY_ID":1840000463, "STATE_ID":21},
 {"CITY":"Holyoke", "CITY_ASCII":"Holyoke", "LAT":42.2125, "LNG":-72.6411, "COUNTRY":"United States", "ISO2":"US", "ISO3":"USA", "STATE_PROVINCE":"MASSACHUSETTS", "CAPTIAL":"nan", "POPULATION":40117.0, "CITY_ID":1840000465, "STATE_ID":21},
 {"CITY":"Springfield", "CITY_ASCII":"Springfield", "LAT":42.1155, "LNG":-72.5395, "COUNTRY":"United States", "ISO2":"US", "ISO3":"USA", "STATE_PROVINCE":"MASSACHUSETTS", "CAPTIAL":"nan", "POPULATION":623401.0, "CITY_ID":1840000466, "STATE_ID":21},
 {"CITY":"Brockton", "CITY_ASCII":"Brockton", "LAT":42.0821, "LNG":-71.0242, "COUNTRY":"United States", "ISO2":"US", "ISO3":"USA", "STATE_PROVINCE":"MASSACHUSETTS", "CAPTIAL":"nan", "POPULATION":95708.0, "CITY_ID":1840000467, "STATE_ID":21},
 {"CITY":"Vinton", "CITY_ASCII":"Vinton", "LAT":42.1631, "LNG":-92.026, "COUNTRY":"United States", "ISO2":"US", "ISO3":"USA", "STATE_PROVINCE":"IOWA", "CAPTIAL":"nan", "POPULATION":5075.0, "CITY_ID":1840000470, "STATE_ID":15},
 {"CITY":"Cedar Rapids", "CITY_ASCII":"Cedar Rapids", "LAT":41.9665, "LNG":-91.6782, "COUNTRY":"United States", "ISO2":"US", "ISO3":"USA", "STATE_PROVINCE":"IOWA", "CAPTIAL":"nan", "POPULATION":188038.0, "CITY_ID":1840000471, "STATE_ID":15},
 {"CITY":"Elmira", "CITY_ASCII":"Elmira", "LAT":42.0938, "LNG":-76.8097, "COUNTRY":"United States", "ISO2":"US", "ISO3":"USA", "STATE_PROVINCE":"NEW YORK", "CAPTIAL":"nan", "POPULATION":62989.0, "CITY_ID":1840000472, "STATE_ID":32},
 {"CITY":"Corry", "CITY_ASCII":"Corry", "LAT":41.9259, "LNG":-79.6358, "COUNTRY":"United States", "ISO2":"US", "ISO3":"USA", "STATE_PROVINCE":"PENNSYLVANIA", "CAPTIAL":"nan", "POPULATION":6208.0, "CITY_ID":1840000474, "STATE_ID":38},
 {"CITY":"Edinboro", "CITY_ASCII":"Edinboro", "LAT":41.8762, "LNG":-80.1246, "COUNTRY":"United States", "ISO2":"US", "ISO3":"USA", "STATE_PROVINCE":"PENNSYLVANIA", "CAPTIAL":"nan", "POPULATION":6222.0, "CITY_ID":1840000476, "STATE_ID":38},
 {"CITY":"Erie", "CITY_ASCII":"Erie", "LAT":42.1168, "LNG":-80.0733, "COUNTRY":"United States", "ISO2":"US", "ISO3":"USA", "STATE_PROVINCE":"PENNSYLVANIA", "CAPTIAL":"nan", "POPULATION":184484.0, "CITY_ID":1840000478, "STATE_ID":38},
 {"CITY":"North East", "CITY_ASCII":"North East", "LAT":42.2, "LNG":-79.825, "COUNTRY":"United States", "ISO2":"US", "ISO3":"USA", "STATE_PROVINCE":"PENNSYLVANIA", "CAPTIAL":"nan", "POPULATION":6264.0, "CITY_ID":1840000483, "STATE_ID":38},
 {"CITY":"Carroll", "CITY_ASCII":"Carroll", "LAT":42.0699, "LNG":-94.8647, "COUNTRY":"United States", "ISO2":"US", "ISO3":"USA", "STATE_PROVINCE":"IOWA", "CAPTIAL":"nan", "POPULATION":9833.0, "CITY_ID":1840000490, "STATE_ID":15},
 {"CITY":"Kingston", "CITY_ASCII":"Kingston", "LAT":41.9295, "LNG":-73.9968, "COUNTRY":"United States", "ISO2":"US", "ISO3":"USA", "STATE_PROVINCE":"NEW YORK", "CAPTIAL":"nan", "POPULATION":54791.0, "CITY_ID":1840000493, "STATE_ID":32},
 {"CITY":"Chicago", "CITY_ASCII":"Chicago", "LAT":41.8373, "LNG":-87.6862, "COUNTRY":"United States", "ISO2":"US", "ISO3":"USA", "STATE_PROVINCE":"ILLINOIS", "CAPTIAL":"nan", "POPULATION":8604200.0, "CITY_ID":1840000494, "STATE_ID":13},
 {"CITY":"Campton Hills", "CITY_ASCII":"Campton Hills", "LAT":41.9499, "LNG":-88.4166, "COUNTRY":"United States", "ISO2":"US", "ISO3":"USA", "STATE_PROVINCE":"ILLINOIS", "CAPTIAL":"nan", "POPULATION":11091.0, "CITY_ID":1840000495, "STATE_ID":13},
 {"CITY":"Attleboro", "CITY_ASCII":"Attleboro", "LAT":41.9311, "LNG":-71.295, "COUNTRY":"United States", "ISO2":"US", "ISO3":"USA", "STATE_PROVINCE":"MASSACHUSETTS", "CAPTIAL":"nan", "POPULATION":45237.0, "CITY_ID":1840000496, "STATE_ID":21},
 {"CITY":"Fall River", "CITY_ASCII":"Fall River", "LAT":41.7137, "LNG":-71.1014, "COUNTRY":"United States", "ISO2":"US", "ISO3":"USA", "STATE_PROVINCE":"MASSACHUSETTS", "CAPTIAL":"nan", "POPULATION":89541.0, "CITY_ID":1840000497, "STATE_ID":21},
 {"CITY":"Beacon", "CITY_ASCII":"Beacon", "LAT":41.5036, "LNG":-73.9655, "COUNTRY":"United States", "ISO2":"US", "ISO3":"USA", "STATE_PROVINCE":"NEW YORK", "CAPTIAL":"nan", "POPULATION":13968.0, "CITY_ID":1840000499, "STATE_ID":32},
 {"CITY":"Poughkeepsie", "CITY_ASCII":"Poughkeepsie", "LAT":41.6949, "LNG":-73.921, "COUNTRY":"United States", "ISO2":"US", "ISO3":"USA", "STATE_PROVINCE":"NEW YORK", "CAPTIAL":"nan", "POPULATION":394760.0, "CITY_ID":1840000500, "STATE_ID":32},
 {"CITY":"Glastonbury Center", "CITY_ASCII":"Glastonbury Center", "LAT":41.7019, "LNG":-72.6001, "COUNTRY":"United States", "ISO2":"US", "ISO3":"USA", "STATE_PROVINCE":"CONNECTICUT", "CAPTIAL":"nan", "POPULATION":7929.0, "CITY_ID":1840000503, "STATE_ID":7},
 {"CITY":"Kensington", "CITY_ASCII":"Kensington", "LAT":41.6298, "LNG":-72.7714, "COUNTRY":"United States", "ISO2":"US", "ISO3":"USA", "STATE_PROVINCE":"CONNECTICUT", "CAPTIAL":"nan", "POPULATION":7971.0, "CITY_ID":1840000505, "STATE_ID":7},
 {"CITY":"Clinton", "CITY_ASCII":"Clinton", "LAT":41.8434, "LNG":-90.2408, "COUNTRY":"United States", "ISO2":"US", "ISO3":"USA", "STATE_PROVINCE":"IOWA", "CAPTIAL":"nan", "POPULATION":30177.0, "CITY_ID":1840000507, "STATE_ID":15},
 {"CITY":"Sayre", "CITY_ASCII":"Sayre", "LAT":41.9855, "LNG":-76.5207, "COUNTRY":"United States", "ISO2":"US", "ISO3":"USA", "STATE_PROVINCE":"PENNSYLVANIA", "CAPTIAL":"nan", "POPULATION":17281.0, "CITY_ID":1840000517, "STATE_ID":38},
 {"CITY":"Bradford", "CITY_ASCII":"Bradford", "LAT":41.9604, "LNG":-78.6414, "COUNTRY":"United States", "ISO2":"US", "ISO3":"USA", "STATE_PROVINCE":"PENNSYLVANIA", "CAPTIAL":"nan", "POPULATION":11311.0, "CITY_ID":1840000523, "STATE_ID":38},
 {"CITY":"Grinnell", "CITY_ASCII":"Grinnell", "LAT":41.7361, "LNG":-92.7244, "COUNTRY":"United States", "ISO2":"US", "ISO3":"USA", "STATE_PROVINCE":"IOWA", "CAPTIAL":"nan", "POPULATION":9116.0, "CITY_ID":1840000531, "STATE_ID":15},
 {"CITY":"Iowa City", "CITY_ASCII":"Iowa City", "LAT":41.6559, "LNG":-91.5303, "COUNTRY":"United States", "ISO2":"US", "ISO3":"USA", "STATE_PROVINCE":"IOWA", "CAPTIAL":"nan", "POPULATION":118041.0, "CITY_ID":1840000532, "STATE_ID":15},
 {"CITY":"Eastlake", "CITY_ASCII":"Eastlake", "LAT":41.6581, "LNG":-81.4323, "COUNTRY":"United States", "ISO2":"US", "ISO3":"USA", "STATE_PROVINCE":"OHIO", "CAPTIAL":"nan", "POPULATION":18042.0, "CITY_ID":1840000533, "STATE_ID":35},
 {"CITY":"Kirtland", "CITY_ASCII":"Kirtland", "LAT":41.5969, "LNG":-81.3406, "COUNTRY":"United States", "ISO2":"US", "ISO3":"USA", "STATE_PROVINCE":"OHIO", "CAPTIAL":"nan", "POPULATION":6812.0, "CITY_ID":1840000535, "STATE_ID":35},
 {"CITY":"Mentor", "CITY_ASCII":"Mentor", "LAT":41.6895, "LNG":-81.3361, "COUNTRY":"United States", "ISO2":"US", "ISO3":"USA", "STATE_PROVINCE":"OHIO", "CAPTIAL":"nan", "POPULATION":47262.0, "CITY_ID":1840000539, "STATE_ID":35},
 {"CITY":"Painesville", "CITY_ASCII":"Painesville", "LAT":41.724, "LNG":-81.2536, "COUNTRY":"United States", "ISO2":"US", "ISO3":"USA", "STATE_PROVINCE":"OHIO", "CAPTIAL":"nan", "POPULATION":19886.0, "CITY_ID":1840000542, "STATE_ID":35},
 {"CITY":"Wickliffe", "CITY_ASCII":"Wickliffe", "LAT":41.6072, "LNG":-81.469, "COUNTRY":"United States", "ISO2":"US", "ISO3":"USA", "STATE_PROVINCE":"OHIO", "CAPTIAL":"nan", "POPULATION":12744.0, "CITY_ID":1840000546, "STATE_ID":35},
 {"CITY":"Willoughby", "CITY_ASCII":"Willoughby", "LAT":41.646, "LNG":-81.4084, "COUNTRY":"United States", "ISO2":"US", "ISO3":"USA", "STATE_PROVINCE":"OHIO", "CAPTIAL":"nan", "POPULATION":22977.0, "CITY_ID":1840000547, "STATE_ID":35},
 {"CITY":"Willoughby Hills", "CITY_ASCII":"Willoughby Hills", "LAT":41.5873, "LNG":-81.4333, "COUNTRY":"United States", "ISO2":"US", "ISO3":"USA", "STATE_PROVINCE":"OHIO", "CAPTIAL":"nan", "POPULATION":9553.0, "CITY_ID":1840000548, "STATE_ID":35},
 {"CITY":"Willowick", "CITY_ASCII":"Willowick", "LAT":41.6343, "LNG":-81.468, "COUNTRY":"United States", "ISO2":"US", "ISO3":"USA", "STATE_PROVINCE":"OHIO", "CAPTIAL":"nan", "POPULATION":14105.0, "CITY_ID":1840000549, "STATE_ID":35},
 {"CITY":"Meadville", "CITY_ASCII":"Meadville", "LAT":41.6476, "LNG":-80.1468, "COUNTRY":"United States", "ISO2":"US", "ISO3":"USA", "STATE_PROVINCE":"PENNSYLVANIA", "CAPTIAL":"nan", "POPULATION":22580.0, "CITY_ID":1840000558, "STATE_ID":38},
 {"CITY":"Titusville", "CITY_ASCII":"Titusville", "LAT":41.6273, "LNG":-79.6699, "COUNTRY":"United States", "ISO2":"US", "ISO3":"USA", "STATE_PROVINCE":"PENNSYLVANIA", "CAPTIAL":"nan", "POPULATION":5279.0, "CITY_ID":1840000562, "STATE_ID":38},
 {"CITY":"Maumee", "CITY_ASCII":"Maumee", "LAT":41.5696, "LNG":-83.6636, "COUNTRY":"United States", "ISO2":"US", "ISO3":"USA", "STATE_PROVINCE":"OHIO", "CAPTIAL":"nan", "POPULATION":13669.0, "CITY_ID":1840000569, "STATE_ID":35},
 {"CITY":"Oregon", "CITY_ASCII":"Oregon", "LAT":41.6528, "LNG":-83.4322, "COUNTRY":"United States", "ISO2":"US", "ISO3":"USA", "STATE_PROVINCE":"OHIO", "CAPTIAL":"nan", "POPULATION":20055.0, "CITY_ID":1840000570, "STATE_ID":35},
 {"CITY":"Toledo", "CITY_ASCII":"Toledo", "LAT":41.6639, "LNG":-83.5822, "COUNTRY":"United States", "ISO2":"US", "ISO3":"USA", "STATE_PROVINCE":"OHIO", "CAPTIAL":"nan", "POPULATION":482111.0, "CITY_ID":1840000572, "STATE_ID":35},
 {"CITY":"Bryan", "CITY_ASCII":"Bryan", "LAT":41.4706, "LNG":-84.5484, "COUNTRY":"United States", "ISO2":"US", "ISO3":"USA", "STATE_PROVINCE":"OHIO", "CAPTIAL":"nan", "POPULATION":9401.0, "CITY_ID":1840000573, "STATE_ID":35},
 {"CITY":"Middletown", "CITY_ASCII":"Middletown", "LAT":41.4459, "LNG":-74.4236, "COUNTRY":"United States", "ISO2":"US", "ISO3":"USA", "STATE_PROVINCE":"NEW YORK", "CAPTIAL":"nan", "POPULATION":58592.0, "CITY_ID":1840000585, "STATE_ID":32},
 {"CITY":"Newburgh", "CITY_ASCII":"Newburgh", "LAT":41.553, "LNG":-74.0599, "COUNTRY":"United States", "ISO2":"US", "ISO3":"USA", "STATE_PROVINCE":"NEW YORK", "CAPTIAL":"nan", "POPULATION":30905.0, "CITY_ID":1840000586, "STATE_ID":32},
 {"CITY":"Port Jervis", "CITY_ASCII":"Port Jervis", "LAT":41.3783, "LNG":-74.6909, "COUNTRY":"United States", "ISO2":"US", "ISO3":"USA", "STATE_PROVINCE":"NEW YORK", "CAPTIAL":"nan", "POPULATION":16273.0, "CITY_ID":1840000587, "STATE_ID":32},
 {"CITY":"Berea", "CITY_ASCII":"Berea", "LAT":41.3696, "LNG":-81.8642, "COUNTRY":"United States", "ISO2":"US", "ISO3":"USA", "STATE_PROVINCE":"OHIO", "CAPTIAL":"nan", "POPULATION":18609.0, "CITY_ID":1840000588, "STATE_ID":35},
 {"CITY":"Brecksville", "CITY_ASCII":"Brecksville", "LAT":41.3079, "LNG":-81.6193, "COUNTRY":"United States", "ISO2":"US", "ISO3":"USA", "STATE_PROVINCE":"OHIO", "CAPTIAL":"nan", "POPULATION":13604.0, "CITY_ID":1840000590, "STATE_ID":35},
 {"CITY":"Broadview Heights", "CITY_ASCII":"Broadview Heights", "LAT":41.3195, "LNG":-81.6782, "COUNTRY":"United States", "ISO2":"US", "ISO3":"USA", "STATE_PROVINCE":"OHIO", "CAPTIAL":"nan", "POPULATION":19102.0, "CITY_ID":1840000591, "STATE_ID":35},
 {"CITY":"Brooklyn", "CITY_ASCII":"Brooklyn", "LAT":41.4349, "LNG":-81.7498, "COUNTRY":"United States", "ISO2":"US", "ISO3":"USA", "STATE_PROVINCE":"OHIO", "CAPTIAL":"nan", "POPULATION":10646.0, "CITY_ID":1840000592, "STATE_ID":35},
 {"CITY":"Brook Park", "CITY_ASCII":"Brook Park", "LAT":41.4036, "LNG":-81.8219, "COUNTRY":"United States", "ISO2":"US", "ISO3":"USA", "STATE_PROVINCE":"OHIO", "CAPTIAL":"nan", "POPULATION":18382.0, "CITY_ID":1840000594, "STATE_ID":35},
 {"CITY":"Cleveland", "CITY_ASCII":"Cleveland", "LAT":41.4767, "LNG":-81.6804, "COUNTRY":"United States", "ISO2":"US", "ISO3":"USA", "STATE_PROVINCE":"OHIO", "CAPTIAL":"nan", "POPULATION":1710090.0, "CITY_ID":1840000596, "STATE_ID":35},
 {"CITY":"Cleveland Heights", "CITY_ASCII":"Cleveland Heights", "LAT":41.5112, "LNG":-81.5636, "COUNTRY":"United States", "ISO2":"US", "ISO3":"USA", "STATE_PROVINCE":"OHIO", "CAPTIAL":"nan", "POPULATION":43992.0, "CITY_ID":1840000597, "STATE_ID":35},
 {"CITY":"East Cleveland", "CITY_ASCII":"East Cleveland", "LAT":41.5318, "LNG":-81.5795, "COUNTRY":"United States", "ISO2":"US", "ISO3":"USA", "STATE_PROVINCE":"OHIO", "CAPTIAL":"nan", "POPULATION":16964.0, "CITY_ID":1840000599, "STATE_ID":35},
 {"CITY":"Euclid", "CITY_ASCII":"Euclid", "LAT":41.5904, "LNG":-81.5188, "COUNTRY":"United States", "ISO2":"US", "ISO3":"USA", "STATE_PROVINCE":"OHIO", "CAPTIAL":"nan", "POPULATION":46550.0, "CITY_ID":1840000600, "STATE_ID":35},
 {"CITY":"Fairview Park", "CITY_ASCII":"Fairview Park", "LAT":41.4419, "LNG":-81.853, "COUNTRY":"United States", "ISO2":"US", "ISO3":"USA", "STATE_PROVINCE":"OHIO", "CAPTIAL":"nan", "POPULATION":16161.0, "CITY_ID":1840000601, "STATE_ID":35},
 {"CITY":"Garfield Heights", "CITY_ASCII":"Garfield Heights", "LAT":41.4199, "LNG":-81.6038, "COUNTRY":"United States", "ISO2":"US", "ISO3":"USA", "STATE_PROVINCE":"OHIO", "CAPTIAL":"nan", "POPULATION":27448.0, "CITY_ID":1840000602, "STATE_ID":35},
 {"CITY":"Highland Heights", "CITY_ASCII":"Highland Heights", "LAT":41.5518, "LNG":-81.4691, "COUNTRY":"United States", "ISO2":"US", "ISO3":"USA", "STATE_PROVINCE":"OHIO", "CAPTIAL":"nan", "POPULATION":8373.0, "CITY_ID":1840000605, "STATE_ID":35},
 {"CITY":"Independence", "CITY_ASCII":"Independence", "LAT":41.378, "LNG":-81.6385, "COUNTRY":"United States", "ISO2":"US", "ISO3":"USA", "STATE_PROVINCE":"OHIO", "CAPTIAL":"nan", "POPULATION":7175.0, "CITY_ID":1840000607, "STATE_ID":35},
 {"CITY":"Lakewood", "CITY_ASCII":"Lakewood", "LAT":41.4824, "LNG":-81.8008, "COUNTRY":"United States", "ISO2":"US", "ISO3":"USA", "STATE_PROVINCE":"OHIO", "CAPTIAL":"nan", "POPULATION":49678.0, "CITY_ID":1840000608, "STATE_ID":35},
 {"CITY":"Lyndhurst", "CITY_ASCII":"Lyndhurst", "LAT":41.5172, "LNG":-81.4922, "COUNTRY":"United States", "ISO2":"US", "ISO3":"USA", "STATE_PROVINCE":"OHIO", "CAPTIAL":"nan", "POPULATION":13366.0, "CITY_ID":1840000610, "STATE_ID":35},
 {"CITY":"Maple Heights", "CITY_ASCII":"Maple Heights", "LAT":41.4094, "LNG":-81.5625, "COUNTRY":"United States", "ISO2":"US", "ISO3":"USA", "STATE_PROVINCE":"OHIO", "CAPTIAL":"nan", "POPULATION":22078.0, "CITY_ID":1840000611, "STATE_ID":35},
 {"CITY":"Mayfield Heights", "CITY_ASCII":"Mayfield Heights", "LAT":41.5175, "LNG":-81.4534, "COUNTRY":"United States", "ISO2":"US", "ISO3":"USA", "STATE_PROVINCE":"OHIO", "CAPTIAL":"nan", "POPULATION":18487.0, "CITY_ID":1840000613, "STATE_ID":35},
 {"CITY":"Middleburg Heights", "CITY_ASCII":"Middleburg Heights", "LAT":41.3695, "LNG":-81.8151, "COUNTRY":"United States", "ISO2":"US", "ISO3":"USA", "STATE_PROVINCE":"OHIO", "CAPTIAL":"nan", "POPULATION":15432.0, "CITY_ID":1840000614, "STATE_ID":35},
 {"CITY":"St. Marys", "CITY_ASCII":"St. Marys", "LAT":41.4574, "LNG":-78.5342, "COUNTRY":"United States", "ISO2":"US", "ISO3":"USA", "STATE_PROVINCE":"PENNSYLVANIA", "CAPTIAL":"nan", "POPULATION":12260.0, "CITY_ID":1840000618, "STATE_ID":38},
 {"CITY":"Bowling Green", "CITY_ASCII":"Bowling Green", "LAT":41.3773, "LNG":-83.65, "COUNTRY":"United States", "ISO2":"US", "ISO3":"USA", "STATE_PROVINCE":"OHIO", "CAPTIAL":"nan", "POPULATION":32249.0, "CITY_ID":1840000621, "STATE_ID":35},
 {"CITY":"Northwood", "CITY_ASCII":"Northwood", "LAT":41.6089, "LNG":-83.4836, "COUNTRY":"United States", "ISO2":"US", "ISO3":"USA", "STATE_PROVINCE":"OHIO", "CAPTIAL":"nan", "POPULATION":5434.0, "CITY_ID":1840000622, "STATE_ID":35},
 {"CITY":"Perrysburg", "CITY_ASCII":"Perrysburg", "LAT":41.5377, "LNG":-83.6413, "COUNTRY":"United States", "ISO2":"US", "ISO3":"USA", "STATE_PROVINCE":"OHIO", "CAPTIAL":"nan", "POPULATION":21626.0, "CITY_ID":1840000623, "STATE_ID":35},
 {"CITY":"Rossford", "CITY_ASCII":"Rossford", "LAT":41.5832, "LNG":-83.5692, "COUNTRY":"United States", "ISO2":"US", "ISO3":"USA", "STATE_PROVINCE":"OHIO", "CAPTIAL":"nan", "POPULATION":6562.0, "CITY_ID":1840000624, "STATE_ID":35},
 {"CITY":"Jersey Shore", "CITY_ASCII":"Jersey Shore", "LAT":41.2012, "LNG":-77.2666, "COUNTRY":"United States", "ISO2":"US", "ISO3":"USA", "STATE_PROVINCE":"PENNSYLVANIA", "CAPTIAL":"nan", "POPULATION":9116.0, "CITY_ID":1840000630, "STATE_ID":38},
 {"CITY":"Montgomery", "CITY_ASCII":"Montgomery", "LAT":41.1709, "LNG":-76.874, "COUNTRY":"United States", "ISO2":"US", "ISO3":"USA", "STATE_PROVINCE":"PENNSYLVANIA", "CAPTIAL":"nan", "POPULATION":6159.0, "CITY_ID":1840000631, "STATE_ID":38},
 {"CITY":"Muncy", "CITY_ASCII":"Muncy", "LAT":41.2021, "LNG":-76.7854, "COUNTRY":"United States", "ISO2":"US", "ISO3":"USA", "STATE_PROVINCE":"PENNSYLVANIA", "CAPTIAL":"nan", "POPULATION":9245.0, "CITY_ID":1840000633, "STATE_ID":38},
 {"CITY":"South Williamsport", "CITY_ASCII":"South Williamsport", "LAT":41.2294, "LNG":-77.0009, "COUNTRY":"United States", "ISO2":"US", "ISO3":"USA", "STATE_PROVINCE":"PENNSYLVANIA", "CAPTIAL":"nan", "POPULATION":6068.0, "CITY_ID":1840000636, "STATE_ID":38},
 {"CITY":"Williamsport", "CITY_ASCII":"Williamsport", "LAT":41.2398, "LNG":-77.0371, "COUNTRY":"United States", "ISO2":"US", "ISO3":"USA", "STATE_PROVINCE":"PENNSYLVANIA", "CAPTIAL":"nan", "POPULATION":53861.0, "CITY_ID":1840000637, "STATE_ID":38},
 {"CITY":"Amherst", "CITY_ASCII":"Amherst", "LAT":41.4022, "LNG":-82.2303, "COUNTRY":"United States", "ISO2":"US", "ISO3":"USA", "STATE_PROVINCE":"OHIO", "CAPTIAL":"nan", "POPULATION":12219.0, "CITY_ID":1840000640, "STATE_ID":35},
 {"CITY":"Avon", "CITY_ASCII":"Avon", "LAT":41.4485, "LNG":-82.0187, "COUNTRY":"United States", "ISO2":"US", "ISO3":"USA", "STATE_PROVINCE":"OHIO", "CAPTIAL":"nan", "POPULATION":23399.0, "CITY_ID":1840000641, "STATE_ID":35},
 {"CITY":"Avon Lake", "CITY_ASCII":"Avon Lake", "LAT":41.4945, "LNG":-82.016, "COUNTRY":"United States", "ISO2":"US", "ISO3":"USA", "STATE_PROVINCE":"OHIO", "CAPTIAL":"nan", "POPULATION":24504.0, "CITY_ID":1840000642, "STATE_ID":35},
 {"CITY":"Elyria", "CITY_ASCII":"Elyria", "LAT":41.3761, "LNG":-82.1063, "COUNTRY":"United States", "ISO2":"US", "ISO3":"USA", "STATE_PROVINCE":"OHIO", "CAPTIAL":"nan", "POPULATION":53757.0, "CITY_ID":1840000643, "STATE_ID":35},
 {"CITY":"Lorain", "CITY_ASCII":"Lorain", "LAT":41.4409, "LNG":-82.184, "COUNTRY":"United States", "ISO2":"US", "ISO3":"USA", "STATE_PROVINCE":"OHIO", "CAPTIAL":"nan", "POPULATION":180279.0, "CITY_ID":1840000644, "STATE_ID":35},
 {"CITY":"North Ridgeville", "CITY_ASCII":"North Ridgeville", "LAT":41.3851, "LNG":-82.0194, "COUNTRY":"United States", "ISO2":"US", "ISO3":"USA", "STATE_PROVINCE":"OHIO", "CAPTIAL":"nan", "POPULATION":34392.0, "CITY_ID":1840000645, "STATE_ID":35},
 {"CITY":"Sheffield Lake", "CITY_ASCII":"Sheffield Lake", "LAT":41.4884, "LNG":-82.0978, "COUNTRY":"United States", "ISO2":"US", "ISO3":"USA", "STATE_PROVINCE":"OHIO", "CAPTIAL":"nan", "POPULATION":8916.0, "CITY_ID":1840000647, "STATE_ID":35},
 {"CITY":"Indianola", "CITY_ASCII":"Indianola", "LAT":41.3629, "LNG":-93.5652, "COUNTRY":"United States", "ISO2":"US", "ISO3":"USA", "STATE_PROVINCE":"IOWA", "CAPTIAL":"nan", "POPULATION":16015.0, "CITY_ID":1840000648, "STATE_ID":15},
 {"CITY":"Winterset", "CITY_ASCII":"Winterset", "LAT":41.3457, "LNG":-94.0137, "COUNTRY":"United States", "ISO2":"US", "ISO3":"USA", "STATE_PROVINCE":"IOWA", "CAPTIAL":"nan", "POPULATION":5383.0, "CITY_ID":1840000649, "STATE_ID":15},
 {"CITY":"Oskaloosa", "CITY_ASCII":"Oskaloosa", "LAT":41.2922, "LNG":-92.6403, "COUNTRY":"United States", "ISO2":"US", "ISO3":"USA", "STATE_PROVINCE":"IOWA", "CAPTIAL":"nan", "POPULATION":12592.0, "CITY_ID":1840000650, "STATE_ID":15},
 {"CITY":"Warren", "CITY_ASCII":"Warren", "LAT":41.239, "LNG":-80.8174, "COUNTRY":"United States", "ISO2":"US", "ISO3":"USA", "STATE_PROVINCE":"OHIO", "CAPTIAL":"nan", "POPULATION":38752.0, "CITY_ID":1840000652, "STATE_ID":35},
 {"CITY":"Fremont", "CITY_ASCII":"Fremont", "LAT":41.3536, "LNG":-83.1148, "COUNTRY":"United States", "ISO2":"US", "ISO3":"USA", "STATE_PROVINCE":"OHIO", "CAPTIAL":"nan", "POPULATION":22191.0, "CITY_ID":1840000653, "STATE_ID":35},
 {"CITY":"Bellevue", "CITY_ASCII":"Bellevue", "LAT":41.2743, "LNG":-82.8394, "COUNTRY":"United States", "ISO2":"US", "ISO3":"USA", "STATE_PROVINCE":"OHIO", "CAPTIAL":"nan", "POPULATION":8094.0, "CITY_ID":1840000654, "STATE_ID":35},
 {"CITY":"Greenville", "CITY_ASCII":"Greenville", "LAT":41.4052, "LNG":-80.3837, "COUNTRY":"United States", "ISO2":"US", "ISO3":"USA", "STATE_PROVINCE":"PENNSYLVANIA", "CAPTIAL":"nan", "POPULATION":9594.0, "CITY_ID":1840000659, "STATE_ID":38},
 {"CITY":"Grove City", "CITY_ASCII":"Grove City", "LAT":41.1572, "LNG":-80.0894, "COUNTRY":"United States", "ISO2":"US", "ISO3":"USA", "STATE_PROVINCE":"PENNSYLVANIA", "CAPTIAL":"nan", "POPULATION":11085.0, "CITY_ID":1840000660, "STATE_ID":38},
 {"CITY":"Uniontown", "CITY_ASCII":"Uniontown", "LAT":39.8994, "LNG":-79.7244, "COUNTRY":"United States", "ISO2":"US", "ISO3":"USA", "STATE_PROVINCE":"PENNSYLVANIA", "CAPTIAL":"nan", "POPULATION":48137.0, "CITY_ID":1840000671, "STATE_ID":38},
 {"CITY":"Philadelphia", "CITY_ASCII":"Philadelphia", "LAT":40.0077, "LNG":-75.1339, "COUNTRY":"United States", "ISO2":"US", "ISO3":"USA", "STATE_PROVINCE":"PENNSYLVANIA", "CAPTIAL":"nan", "POPULATION":5649300.0, "CITY_ID":1840000673, "STATE_ID":38},
 {"CITY":"London", "CITY_ASCII":"London", "LAT":39.8936, "LNG":-83.4376, "COUNTRY":"United States", "ISO2":"US", "ISO3":"USA", "STATE_PROVINCE":"OHIO", "CAPTIAL":"nan", "POPULATION":14870.0, "CITY_ID":1840000674, "STATE_ID":35},
 {"CITY":"Gettysburg", "CITY_ASCII":"Gettysburg", "LAT":39.8304, "LNG":-77.2339, "COUNTRY":"United States", "ISO2":"US", "ISO3":"USA", "STATE_PROVINCE":"PENNSYLVANIA", "CAPTIAL":"nan", "POPULATION":7724.0, "CITY_ID":1840000683, "STATE_ID":38},
 {"CITY":"Littlestown", "CITY_ASCII":"Littlestown", "LAT":39.7452, "LNG":-77.0892, "COUNTRY":"United States", "ISO2":"US", "ISO3":"USA", "STATE_PROVINCE":"PENNSYLVANIA", "CAPTIAL":"nan", "POPULATION":6409.0, "CITY_ID":1840000684, "STATE_ID":38},
 {"CITY":"Brookhaven", "CITY_ASCII":"Brookhaven", "LAT":39.8715, "LNG":-75.3918, "COUNTRY":"United States", "ISO2":"US", "ISO3":"USA", "STATE_PROVINCE":"PENNSYLVANIA", "CAPTIAL":"nan", "POPULATION":8049.0, "CITY_ID":1840000689, "STATE_ID":38},
 {"CITY":"Chester", "CITY_ASCII":"Chester", "LAT":39.8456, "LNG":-75.3718, "COUNTRY":"United States", "ISO2":"US", "ISO3":"USA", "STATE_PROVINCE":"PENNSYLVANIA", "CAPTIAL":"nan", "POPULATION":34000.0, "CITY_ID":1840000690, "STATE_ID":38},
 {"CITY":"Clifton Heights", "CITY_ASCII":"Clifton Heights", "LAT":39.9301, "LNG":-75.2958, "COUNTRY":"United States", "ISO2":"US", "ISO3":"USA", "STATE_PROVINCE":"PENNSYLVANIA", "CAPTIAL":"nan", "POPULATION":6697.0, "CITY_ID":1840000692, "STATE_ID":38},
 {"CITY":"Collingdale", "CITY_ASCII":"Collingdale", "LAT":39.9151, "LNG":-75.2776, "COUNTRY":"United States", "ISO2":"US", "ISO3":"USA", "STATE_PROVINCE":"PENNSYLVANIA", "CAPTIAL":"nan", "POPULATION":8794.0, "CITY_ID":1840000693, "STATE_ID":38},
 {"CITY":"Darby", "CITY_ASCII":"Darby", "LAT":39.921, "LNG":-75.2611, "COUNTRY":"United States", "ISO2":"US", "ISO3":"USA", "STATE_PROVINCE":"PENNSYLVANIA", "CAPTIAL":"nan", "POPULATION":10702.0, "CITY_ID":1840000695, "STATE_ID":38},
 {"CITY":"Folcroft", "CITY_ASCII":"Folcroft", "LAT":39.8891, "LNG":-75.277, "COUNTRY":"United States", "ISO2":"US", "ISO3":"USA", "STATE_PROVINCE":"PENNSYLVANIA", "CAPTIAL":"nan", "POPULATION":6632.0, "CITY_ID":1840000698, "STATE_ID":38},
 {"CITY":"Glenolden", "CITY_ASCII":"Glenolden", "LAT":39.8996, "LNG":-75.292, "COUNTRY":"United States", "ISO2":"US", "ISO3":"USA", "STATE_PROVINCE":"PENNSYLVANIA", "CAPTIAL":"nan", "POPULATION":7164.0, "CITY_ID":1840000699, "STATE_ID":38},
 {"CITY":"Lansdowne", "CITY_ASCII":"Lansdowne", "LAT":39.9408, "LNG":-75.276, "COUNTRY":"United States", "ISO2":"US", "ISO3":"USA", "STATE_PROVINCE":"PENNSYLVANIA", "CAPTIAL":"nan", "POPULATION":10647.0, "CITY_ID":1840000700, "STATE_ID":38},
 {"CITY":"Media", "CITY_ASCII":"Media", "LAT":39.9198, "LNG":-75.3888, "COUNTRY":"United States", "ISO2":"US", "ISO3":"USA", "STATE_PROVINCE":"PENNSYLVANIA", "CAPTIAL":"nan", "POPULATION":5682.0, "CITY_ID":1840000702, "STATE_ID":38},
 {"CITY":"Norwood", "CITY_ASCII":"Norwood", "LAT":39.8865, "LNG":-75.2964, "COUNTRY":"United States", "ISO2":"US", "ISO3":"USA", "STATE_PROVINCE":"PENNSYLVANIA", "CAPTIAL":"nan", "POPULATION":5897.0, "CITY_ID":1840000705, "STATE_ID":38},
 {"CITY":"Prospect Park", "CITY_ASCII":"Prospect Park", "LAT":39.8858, "LNG":-75.3074, "COUNTRY":"United States", "ISO2":"US", "ISO3":"USA", "STATE_PROVINCE":"PENNSYLVANIA", "CAPTIAL":"nan", "POPULATION":6492.0, "CITY_ID":1840000707, "STATE_ID":38},
 {"CITY":"Ridley Park", "CITY_ASCII":"Ridley Park", "LAT":39.8785, "LNG":-75.3251, "COUNTRY":"United States", "ISO2":"US", "ISO3":"USA", "STATE_PROVINCE":"PENNSYLVANIA", "CAPTIAL":"nan", "POPULATION":7065.0, "CITY_ID":1840000708, "STATE_ID":38},
 {"CITY":"Sharon Hill", "CITY_ASCII":"Sharon Hill", "LAT":39.9075, "LNG":-75.2678, "COUNTRY":"United States", "ISO2":"US", "ISO3":"USA", "STATE_PROVINCE":"PENNSYLVANIA", "CAPTIAL":"nan", "POPULATION":5689.0, "CITY_ID":1840000711, "STATE_ID":38},
 {"CITY":"Swarthmore", "CITY_ASCII":"Swarthmore", "LAT":39.9023, "LNG":-75.3488, "COUNTRY":"United States", "ISO2":"US", "ISO3":"USA", "STATE_PROVINCE":"PENNSYLVANIA", "CAPTIAL":"nan", "POPULATION":6346.0, "CITY_ID":1840000712, "STATE_ID":38},
 {"CITY":"Yeadon", "CITY_ASCII":"Yeadon", "LAT":39.9325, "LNG":-75.2527, "COUNTRY":"United States", "ISO2":"US", "ISO3":"USA", "STATE_PROVINCE":"PENNSYLVANIA", "CAPTIAL":"nan", "POPULATION":11496.0, "CITY_ID":1840000715, "STATE_ID":38},
 {"CITY":"Waynesburg", "CITY_ASCII":"Waynesburg", "LAT":39.8983, "LNG":-80.1855, "COUNTRY":"United States", "ISO2":"US", "ISO3":"USA", "STATE_PROVINCE":"PENNSYLVANIA", "CAPTIAL":"nan", "POPULATION":8227.0, "CITY_ID":1840000722, "STATE_ID":38},
 {"CITY":"Lindenwold", "CITY_ASCII":"Lindenwold", "LAT":39.8172, "LNG":-74.9898, "COUNTRY":"United States", "ISO2":"US", "ISO3":"USA", "STATE_PROVINCE":"NEW JERSEY", "CAPTIAL":"nan", "POPULATION":17263.0, "CITY_ID":1840000730, "STATE_ID":30},
 {"CITY":"Bellmawr", "CITY_ASCII":"Bellmawr", "LAT":39.8665, "LNG":-75.0941, "COUNTRY":"United States", "ISO2":"US", "ISO3":"USA", "STATE_PROVINCE":"NEW JERSEY", "CAPTIAL":"nan", "POPULATION":11359.0, "CITY_ID":1840000731, "STATE_ID":30},
 {"CITY":"Hermitage", "CITY_ASCII":"Hermitage", "LAT":41.2305, "LNG":-80.4414, "COUNTRY":"United States", "ISO2":"US", "ISO3":"USA", "STATE_PROVINCE":"PENNSYLVANIA", "CAPTIAL":"nan", "POPULATION":15471.0, "CITY_ID":1840000732, "STATE_ID":38},
 {"CITY":"Clarion", "CITY_ASCII":"Clarion", "LAT":41.2106, "LNG":-79.3803, "COUNTRY":"United States", "ISO2":"US", "ISO3":"USA", "STATE_PROVINCE":"PENNSYLVANIA", "CAPTIAL":"nan", "POPULATION":10138.0, "CITY_ID":1840000739, "STATE_ID":38},
 {"CITY":"Dallas", "CITY_ASCII":"Dallas", "LAT":41.3604, "LNG":-75.9662, "COUNTRY":"United States", "ISO2":"US", "ISO3":"USA", "STATE_PROVINCE":"PENNSYLVANIA", "CAPTIAL":"nan", "POPULATION":9208.0, "CITY_ID":1840000745, "STATE_ID":38},
 {"CITY":"Exeter", "CITY_ASCII":"Exeter", "LAT":41.3338, "LNG":-75.8214, "COUNTRY":"United States", "ISO2":"US", "ISO3":"USA", "STATE_PROVINCE":"PENNSYLVANIA", "CAPTIAL":"nan", "POPULATION":5541.0, "CITY_ID":1840000749, "STATE_ID":38},
 {"CITY":"Hazleton", "CITY_ASCII":"Hazleton", "LAT":40.9504, "LNG":-75.9724, "COUNTRY":"United States", "ISO2":"US", "ISO3":"USA", "STATE_PROVINCE":"PENNSYLVANIA", "CAPTIAL":"nan", "POPULATION":55604.0, "CITY_ID":1840000753, "STATE_ID":38},
 {"CITY":"Kingston", "CITY_ASCII":"Kingston", "LAT":41.2652, "LNG":-75.8875, "COUNTRY":"United States", "ISO2":"US", "ISO3":"USA", "STATE_PROVINCE":"PENNSYLVANIA", "CAPTIAL":"nan", "POPULATION":12812.0, "CITY_ID":1840000756, "STATE_ID":38},
 {"CITY":"Nanticoke", "CITY_ASCII":"Nanticoke", "LAT":41.2004, "LNG":-76.0003, "COUNTRY":"United States", "ISO2":"US", "ISO3":"USA", "STATE_PROVINCE":"PENNSYLVANIA", "CAPTIAL":"nan", "POPULATION":10312.0, "CITY_ID":1840000761, "STATE_ID":38},
 {"CITY":"Pittston", "CITY_ASCII":"Pittston", "LAT":41.3274, "LNG":-75.7885, "COUNTRY":"United States", "ISO2":"US", "ISO3":"USA", "STATE_PROVINCE":"PENNSYLVANIA", "CAPTIAL":"nan", "POPULATION":7802.0, "CITY_ID":1840000766, "STATE_ID":38},
 {"CITY":"Plymouth", "CITY_ASCII":"Plymouth", "LAT":41.2404, "LNG":-75.9505, "COUNTRY":"United States", "ISO2":"US", "ISO3":"USA", "STATE_PROVINCE":"PENNSYLVANIA", "CAPTIAL":"nan", "POPULATION":5794.0, "CITY_ID":1840000767, "STATE_ID":38},
 {"CITY":"Swoyersville", "CITY_ASCII":"Swoyersville", "LAT":41.2975, "LNG":-75.8799, "COUNTRY":"United States", "ISO2":"US", "ISO3":"USA", "STATE_PROVINCE":"PENNSYLVANIA", "CAPTIAL":"nan", "POPULATION":5009.0, "CITY_ID":1840000771, "STATE_ID":38},
 {"CITY":"Wilkes-Barre", "CITY_ASCII":"Wilkes-Barre", "LAT":41.2468, "LNG":-75.8759, "COUNTRY":"United States", "ISO2":"US", "ISO3":"USA", "STATE_PROVINCE":"PENNSYLVANIA", "CAPTIAL":"nan", "POPULATION":40766.0, "CITY_ID":1840000777, "STATE_ID":38},
 {"CITY":"Mount Vernon", "CITY_ASCII":"Mount Vernon", "LAT":40.9136, "LNG":-73.8291, "COUNTRY":"United States", "ISO2":"US", "ISO3":"USA", "STATE_PROVINCE":"NEW YORK", "CAPTIAL":"nan", "POPULATION":67345.0, "CITY_ID":1840000781, "STATE_ID":32},
 {"CITY":"New Rochelle", "CITY_ASCII":"New Rochelle", "LAT":40.9305, "LNG":-73.7836, "COUNTRY":"United States", "ISO2":"US", "ISO3":"USA", "STATE_PROVINCE":"NEW YORK", "CAPTIAL":"nan", "POPULATION":78557.0, "CITY_ID":1840000782, "STATE_ID":32},
 {"CITY":"Peekskill", "CITY_ASCII":"Peekskill", "LAT":41.2883, "LNG":-73.9227, "COUNTRY":"United States", "ISO2":"US", "ISO3":"USA", "STATE_PROVINCE":"NEW YORK", "CAPTIAL":"nan", "POPULATION":24295.0, "CITY_ID":1840000783, "STATE_ID":32},
 {"CITY":"Rye", "CITY_ASCII":"Rye", "LAT":41.0076, "LNG":-73.6872, "COUNTRY":"United States", "ISO2":"US", "ISO3":"USA", "STATE_PROVINCE":"NEW YORK", "CAPTIAL":"nan", "POPULATION":46595.0, "CITY_ID":1840000784, "STATE_ID":32},
 {"CITY":"Newton", "CITY_ASCII":"Newton", "LAT":41.0534, "LNG":-74.7527, "COUNTRY":"United States", "ISO2":"US", "ISO3":"USA", "STATE_PROVINCE":"NEW JERSEY", "CAPTIAL":"nan", "POPULATION":11974.0, "CITY_ID":1840000786, "STATE_ID":30},
 {"CITY":"Akron", "CITY_ASCII":"Akron", "LAT":41.0798, "LNG":-81.5219, "COUNTRY":"United States", "ISO2":"US", "ISO3":"USA", "STATE_PROVINCE":"OHIO", "CAPTIAL":"nan", "POPULATION":565208.0, "CITY_ID":1840000791, "STATE_ID":35},
 {"CITY":"Barberton", "CITY_ASCII":"Barberton", "LAT":41.0094, "LNG":-81.6038, "COUNTRY":"United States", "ISO2":"US", "ISO3":"USA", "STATE_PROVINCE":"OHIO", "CAPTIAL":"nan", "POPULATION":25953.0, "CITY_ID":1840000792, "STATE_ID":35},
 {"CITY":"Cuyahoga Falls", "CITY_ASCII":"Cuyahoga Falls", "LAT":41.1641, "LNG":-81.5207, "COUNTRY":"United States", "ISO2":"US", "ISO3":"USA", "STATE_PROVINCE":"OHIO", "CAPTIAL":"nan", "POPULATION":49106.0, "CITY_ID":1840000795, "STATE_ID":35},
 {"CITY":"Macedonia", "CITY_ASCII":"Macedonia", "LAT":41.3147, "LNG":-81.4989, "COUNTRY":"United States", "ISO2":"US", "ISO3":"USA", "STATE_PROVINCE":"OHIO", "CAPTIAL":"nan", "POPULATION":12000.0, "CITY_ID":1840000797, "STATE_ID":35},
 {"CITY":"Munroe Falls", "CITY_ASCII":"Munroe Falls", "LAT":41.1386, "LNG":-81.4344, "COUNTRY":"United States", "ISO2":"US", "ISO3":"USA", "STATE_PROVINCE":"OHIO", "CAPTIAL":"nan", "POPULATION":5063.0, "CITY_ID":1840000798, "STATE_ID":35},
 {"CITY":"Norton", "CITY_ASCII":"Norton", "LAT":41.0294, "LNG":-81.6461, "COUNTRY":"United States", "ISO2":"US", "ISO3":"USA", "STATE_PROVINCE":"OHIO", "CAPTIAL":"nan", "POPULATION":11966.0, "CITY_ID":1840000800, "STATE_ID":35},
 {"CITY":"Stow", "CITY_ASCII":"Stow", "LAT":41.1765, "LNG":-81.4344, "COUNTRY":"United States", "ISO2":"US", "ISO3":"USA", "STATE_PROVINCE":"OHIO", "CAPTIAL":"nan", "POPULATION":34785.0, "CITY_ID":1840000803, "STATE_ID":35},
 {"CITY":"Tallmadge", "CITY_ASCII":"Tallmadge", "LAT":41.1023, "LNG":-81.4216, "COUNTRY":"United States", "ISO2":"US", "ISO3":"USA", "STATE_PROVINCE":"OHIO", "CAPTIAL":"nan", "POPULATION":17519.0, "CITY_ID":1840000804, "STATE_ID":35},
 {"CITY":"Twinsburg", "CITY_ASCII":"Twinsburg", "LAT":41.322, "LNG":-81.4451, "COUNTRY":"United States", "ISO2":"US", "ISO3":"USA", "STATE_PROVINCE":"OHIO", "CAPTIAL":"nan", "POPULATION":18856.0, "CITY_ID":1840000805, "STATE_ID":35},
 {"CITY":"Aurora", "CITY_ASCII":"Aurora", "LAT":41.3118, "LNG":-81.345, "COUNTRY":"United States", "ISO2":"US", "ISO3":"USA", "STATE_PROVINCE":"OHIO", "CAPTIAL":"nan", "POPULATION":16338.0, "CITY_ID":1840000806, "STATE_ID":35},
 {"CITY":"Garrettsville", "CITY_ASCII":"Garrettsville", "LAT":41.2843, "LNG":-81.0933, "COUNTRY":"United States", "ISO2":"US", "ISO3":"USA", "STATE_PROVINCE":"OHIO", "CAPTIAL":"nan", "POPULATION":6123.0, "CITY_ID":1840000807, "STATE_ID":35},
 {"CITY":"Streetsboro", "CITY_ASCII":"Streetsboro", "LAT":41.2396, "LNG":-81.3456, "COUNTRY":"United States", "ISO2":"US", "ISO3":"USA", "STATE_PROVINCE":"OHIO", "CAPTIAL":"nan", "POPULATION":16478.0, "CITY_ID":1840000808, "STATE_ID":35},
 {"CITY":"Bloomsburg", "CITY_ASCII":"Bloomsburg", "LAT":41.0027, "LNG":-76.4561, "COUNTRY":"United States", "ISO2":"US", "ISO3":"USA", "STATE_PROVINCE":"PENNSYLVANIA", "CAPTIAL":"nan", "POPULATION":49840.0, "CITY_ID":1840000811, "STATE_ID":38},
 {"CITY":"Norwalk", "CITY_ASCII":"Norwalk", "LAT":41.2443, "LNG":-82.6088, "COUNTRY":"United States", "ISO2":"US", "ISO3":"USA", "STATE_PROVINCE":"OHIO", "CAPTIAL":"nan", "POPULATION":20629.0, "CITY_ID":1840000817, "STATE_ID":35},
 {"CITY":"Willard", "CITY_ASCII":"Willard", "LAT":41.0518, "LNG":-82.7232, "COUNTRY":"United States", "ISO2":"US", "ISO3":"USA", "STATE_PROVINCE":"OHIO", "CAPTIAL":"nan", "POPULATION":6086.0, "CITY_ID":1840000818, "STATE_ID":35},
 {"CITY":"Fostoria", "CITY_ASCII":"Fostoria", "LAT":41.1601, "LNG":-83.412, "COUNTRY":"United States", "ISO2":"US", "ISO3":"USA", "STATE_PROVINCE":"OHIO", "CAPTIAL":"nan", "POPULATION":14458.0, "CITY_ID":1840000820, "STATE_ID":35},
 {"CITY":"Tiffin", "CITY_ASCII":"Tiffin", "LAT":41.1165, "LNG":-83.1805, "COUNTRY":"United States", "ISO2":"US", "ISO3":"USA", "STATE_PROVINCE":"OHIO", "CAPTIAL":"nan", "POPULATION":19130.0, "CITY_ID":1840000821, "STATE_ID":35},
 {"CITY":"Bellefonte", "CITY_ASCII":"Bellefonte", "LAT":40.9141, "LNG":-77.7683, "COUNTRY":"United States", "ISO2":"US", "ISO3":"USA", "STATE_PROVINCE":"PENNSYLVANIA", "CAPTIAL":"nan", "POPULATION":12998.0, "CITY_ID":1840000822, "STATE_ID":38},
 {"CITY":"Philipsburg", "CITY_ASCII":"Philipsburg", "LAT":40.8952, "LNG":-78.2145, "COUNTRY":"United States", "ISO2":"US", "ISO3":"USA", "STATE_PROVINCE":"PENNSYLVANIA", "CAPTIAL":"nan", "POPULATION":9754.0, "CITY_ID":1840000827, "STATE_ID":38},
 {"CITY":"State College", "CITY_ASCII":"State College", "LAT":40.7909, "LNG":-77.8568, "COUNTRY":"United States", "ISO2":"US", "ISO3":"USA", "STATE_PROVINCE":"PENNSYLVANIA", "CAPTIAL":"nan", "POPULATION":87723.0, "CITY_ID":1840000830, "STATE_ID":38},
 {"CITY":"Bloomingdale", "CITY_ASCII":"Bloomingdale", "LAT":41.03, "LNG":-74.3319, "COUNTRY":"United States", "ISO2":"US", "ISO3":"USA", "STATE_PROVINCE":"NEW JERSEY", "CAPTIAL":"nan", "POPULATION":8061.0, "CITY_ID":1840000832, "STATE_ID":30},
 {"CITY":"Pompton Lakes", "CITY_ASCII":"Pompton Lakes", "LAT":41.0024, "LNG":-74.2859, "COUNTRY":"United States", "ISO2":"US", "ISO3":"USA", "STATE_PROVINCE":"NEW JERSEY", "CAPTIAL":"nan", "POPULATION":10986.0, "CITY_ID":1840000833, "STATE_ID":30},
 {"CITY":"Prospect Park", "CITY_ASCII":"Prospect Park", "LAT":40.938, "LNG":-74.1736, "COUNTRY":"United States", "ISO2":"US", "ISO3":"USA", "STATE_PROVINCE":"NEW JERSEY", "CAPTIAL":"nan", "POPULATION":5843.0, "CITY_ID":1840000834, "STATE_ID":30},
 {"CITY":"Ringwood", "CITY_ASCII":"Ringwood", "LAT":41.1064, "LNG":-74.2749, "COUNTRY":"United States", "ISO2":"US", "ISO3":"USA", "STATE_PROVINCE":"NEW JERSEY", "CAPTIAL":"nan", "POPULATION":12198.0, "CITY_ID":1840000835, "STATE_ID":30},
 {"CITY":"North Haledon", "CITY_ASCII":"North Haledon", "LAT":40.9628, "LNG":-74.1844, "COUNTRY":"United States", "ISO2":"US", "ISO3":"USA", "STATE_PROVINCE":"NEW JERSEY", "CAPTIAL":"nan", "POPULATION":8395.0, "CITY_ID":1840000836, "STATE_ID":30},
 {"CITY":"Passaic", "CITY_ASCII":"Passaic", "LAT":40.8574, "LNG":-74.1282, "COUNTRY":"United States", "ISO2":"US", "ISO3":"USA", "STATE_PROVINCE":"NEW JERSEY", "CAPTIAL":"nan", "POPULATION":69703.0, "CITY_ID":1840000837, "STATE_ID":30},
 {"CITY":"Paterson", "CITY_ASCII":"Paterson", "LAT":40.9147, "LNG":-74.1624, "COUNTRY":"United States", "ISO2":"US", "ISO3":"USA", "STATE_PROVINCE":"NEW JERSEY", "CAPTIAL":"nan", "POPULATION":145233.0, "CITY_ID":1840000838, "STATE_ID":30},
 {"CITY":"Totowa", "CITY_ASCII":"Totowa", "LAT":40.9039, "LNG":-74.2213, "COUNTRY":"United States", "ISO2":"US", "ISO3":"USA", "STATE_PROVINCE":"NEW JERSEY", "CAPTIAL":"nan", "POPULATION":10792.0, "CITY_ID":1840000839, "STATE_ID":30},
 {"CITY":"Wanaque", "CITY_ASCII":"Wanaque", "LAT":41.044, "LNG":-74.29, "COUNTRY":"United States", "ISO2":"US", "ISO3":"USA", "STATE_PROVINCE":"NEW JERSEY", "CAPTIAL":"nan", "POPULATION":11762.0, "CITY_ID":1840000840, "STATE_ID":30},
 {"CITY":"Milton", "CITY_ASCII":"Milton", "LAT":41.009, "LNG":-76.8507, "COUNTRY":"United States", "ISO2":"US", "ISO3":"USA", "STATE_PROVINCE":"PENNSYLVANIA", "CAPTIAL":"nan", "POPULATION":28851.0, "CITY_ID":1840000845, "STATE_ID":38},
 {"CITY":"Mount Carmel", "CITY_ASCII":"Mount Carmel", "LAT":40.7959, "LNG":-76.4121, "COUNTRY":"United States", "ISO2":"US", "ISO3":"USA", "STATE_PROVINCE":"PENNSYLVANIA", "CAPTIAL":"nan", "POPULATION":5724.0, "CITY_ID":1840000846, "STATE_ID":38},
 {"CITY":"Shamokin", "CITY_ASCII":"Shamokin", "LAT":40.7883, "LNG":-76.555, "COUNTRY":"United States", "ISO2":"US", "ISO3":"USA", "STATE_PROVINCE":"PENNSYLVANIA", "CAPTIAL":"nan", "POPULATION":28457.0, "CITY_ID":1840000849, "STATE_ID":38},
 {"CITY":"Sunbury", "CITY_ASCII":"Sunbury", "LAT":40.8617, "LNG":-76.7874, "COUNTRY":"United States", "ISO2":"US", "ISO3":"USA", "STATE_PROVINCE":"PENNSYLVANIA", "CAPTIAL":"nan", "POPULATION":27921.0, "CITY_ID":1840000851, "STATE_ID":38},
 {"CITY":"Butler", "CITY_ASCII":"Butler", "LAT":40.8616, "LNG":-79.8962, "COUNTRY":"United States", "ISO2":"US", "ISO3":"USA", "STATE_PROVINCE":"PENNSYLVANIA", "CAPTIAL":"nan", "POPULATION":37796.0, "CITY_ID":1840000857, "STATE_ID":38},
 {"CITY":"Slippery Rock", "CITY_ASCII":"Slippery Rock", "LAT":41.0695, "LNG":-80.058, "COUNTRY":"United States", "ISO2":"US", "ISO3":"USA", "STATE_PROVINCE":"PENNSYLVANIA", "CAPTIAL":"nan", "POPULATION":6541.0, "CITY_ID":1840000874, "STATE_ID":38},
 {"CITY":"Findlay", "CITY_ASCII":"Findlay", "LAT":41.0467, "LNG":-83.6379, "COUNTRY":"United States", "ISO2":"US", "ISO3":"USA", "STATE_PROVINCE":"OHIO", "CAPTIAL":"nan", "POPULATION":48469.0, "CITY_ID":1840000886, "STATE_ID":35},
 {"CITY":"Fairfield", "CITY_ASCII":"Fairfield", "LAT":41.0061, "LNG":-91.9669, "COUNTRY":"United States", "ISO2":"US", "ISO3":"USA", "STATE_PROVINCE":"IOWA", "CAPTIAL":"nan", "POPULATION":11367.0, "CITY_ID":1840000887, "STATE_ID":15},
 {"CITY":"Mount Pleasant", "CITY_ASCII":"Mount Pleasant", "LAT":40.9625, "LNG":-91.5452, "COUNTRY":"United States", "ISO2":"US", "ISO3":"USA", "STATE_PROVINCE":"IOWA", "CAPTIAL":"nan", "POPULATION":8668.0, "CITY_ID":1840000888, "STATE_ID":15},
 {"CITY":"Osceola", "CITY_ASCII":"Osceola", "LAT":41.0302, "LNG":-93.7829, "COUNTRY":"United States", "ISO2":"US", "ISO3":"USA", "STATE_PROVINCE":"IOWA", "CAPTIAL":"nan", "POPULATION":5242.0, "CITY_ID":1840000889, "STATE_ID":15},
 {"CITY":"Creston", "CITY_ASCII":"Creston", "LAT":41.0597, "LNG":-94.365, "COUNTRY":"United States", "ISO2":"US", "ISO3":"USA", "STATE_PROVINCE":"IOWA", "CAPTIAL":"nan", "POPULATION":7713.0, "CITY_ID":1840000892, "STATE_ID":15},
 {"CITY":"Bergenfield", "CITY_ASCII":"Bergenfield", "LAT":40.9236, "LNG":-73.9983, "COUNTRY":"United States", "ISO2":"US", "ISO3":"USA", "STATE_PROVINCE":"NEW JERSEY", "CAPTIAL":"nan", "POPULATION":27327.0, "CITY_ID":1840000893, "STATE_ID":30},
 {"CITY":"Bogota", "CITY_ASCII":"Bogota", "LAT":40.875, "LNG":-74.0293, "COUNTRY":"United States", "ISO2":"US", "ISO3":"USA", "STATE_PROVINCE":"NEW JERSEY", "CAPTIAL":"nan", "POPULATION":8335.0, "CITY_ID":1840000894, "STATE_ID":30},
 {"CITY":"Carlstadt", "CITY_ASCII":"Carlstadt", "LAT":40.8247, "LNG":-74.0613, "COUNTRY":"United States", "ISO2":"US", "ISO3":"USA", "STATE_PROVINCE":"NEW JERSEY", "CAPTIAL":"nan", "POPULATION":6132.0, "CITY_ID":1840000895, "STATE_ID":30},
 {"CITY":"Ramsey", "CITY_ASCII":"Ramsey", "LAT":41.0595, "LNG":-74.1454, "COUNTRY":"United States", "ISO2":"US", "ISO3":"USA", "STATE_PROVINCE":"NEW JERSEY", "CAPTIAL":"nan", "POPULATION":14884.0, "CITY_ID":1840000896, "STATE_ID":30},
 {"CITY":"Ridgefield", "CITY_ASCII":"Ridgefield", "LAT":40.8313, "LNG":-74.0147, "COUNTRY":"United States", "ISO2":"US", "ISO3":"USA", "STATE_PROVINCE":"NEW JERSEY", "CAPTIAL":"nan", "POPULATION":11171.0, "CITY_ID":1840000897, "STATE_ID":30},
 {"CITY":"Ridgefield Park", "CITY_ASCII":"Ridgefield Park", "LAT":40.8543, "LNG":-74.0201, "COUNTRY":"United States", "ISO2":"US", "ISO3":"USA", "STATE_PROVINCE":"NEW JERSEY", "CAPTIAL":"nan", "POPULATION":12901.0, "CITY_ID":1840000898, "STATE_ID":30},
 {"CITY":"Ridgewood", "CITY_ASCII":"Ridgewood", "LAT":40.9822, "LNG":-74.1128, "COUNTRY":"United States", "ISO2":"US", "ISO3":"USA", "STATE_PROVINCE":"NEW JERSEY", "CAPTIAL":"nan", "POPULATION":25056.0, "CITY_ID":1840000899, "STATE_ID":30},
 {"CITY":"River Edge", "CITY_ASCII":"River Edge", "LAT":40.9268, "LNG":-74.0387, "COUNTRY":"United States", "ISO2":"US", "ISO3":"USA", "STATE_PROVINCE":"NEW JERSEY", "CAPTIAL":"nan", "POPULATION":11435.0, "CITY_ID":1840000900, "STATE_ID":30},
 {"CITY":"Rutherford", "CITY_ASCII":"Rutherford", "LAT":40.8203, "LNG":-74.1057, "COUNTRY":"United States", "ISO2":"US", "ISO3":"USA", "STATE_PROVINCE":"NEW JERSEY", "CAPTIAL":"nan", "POPULATION":18303.0, "CITY_ID":1840000902, "STATE_ID":30},
 {"CITY":"Leonia", "CITY_ASCII":"Leonia", "LAT":40.8638, "LNG":-73.9899, "COUNTRY":"United States", "ISO2":"US", "ISO3":"USA", "STATE_PROVINCE":"NEW JERSEY", "CAPTIAL":"nan", "POPULATION":9035.0, "CITY_ID":1840000904, "STATE_ID":30},
 {"CITY":"Midland Park", "CITY_ASCII":"Midland Park", "LAT":40.9952, "LNG":-74.1411, "COUNTRY":"United States", "ISO2":"US", "ISO3":"USA", "STATE_PROVINCE":"NEW JERSEY", "CAPTIAL":"nan", "POPULATION":7216.0, "CITY_ID":1840000905, "STATE_ID":30},
 {"CITY":"Montvale", "CITY_ASCII":"Montvale", "LAT":41.0529, "LNG":-74.0499, "COUNTRY":"United States", "ISO2":"US", "ISO3":"USA", "STATE_PROVINCE":"NEW JERSEY", "CAPTIAL":"nan", "POPULATION":8570.0, "CITY_ID":1840000906, "STATE_ID":30},
 {"CITY":"New Milford", "CITY_ASCII":"New Milford", "LAT":40.9337, "LNG":-74.0196, "COUNTRY":"United States", "ISO2":"US", "ISO3":"USA", "STATE_PROVINCE":"NEW JERSEY", "CAPTIAL":"nan", "POPULATION":16429.0, "CITY_ID":1840000908, "STATE_ID":30},
 {"CITY":"North Arlington", "CITY_ASCII":"North Arlington", "LAT":40.7875, "LNG":-74.1273, "COUNTRY":"United States", "ISO2":"US", "ISO3":"USA", "STATE_PROVINCE":"NEW JERSEY", "CAPTIAL":"nan", "POPULATION":15683.0, "CITY_ID":1840000909, "STATE_ID":30},
 {"CITY":"Norwood", "CITY_ASCII":"Norwood", "LAT":40.9933, "LNG":-73.951, "COUNTRY":"United States", "ISO2":"US", "ISO3":"USA", "STATE_PROVINCE":"NEW JERSEY", "CAPTIAL":"nan", "POPULATION":5793.0, "CITY_ID":1840000911, "STATE_ID":30},
 {"CITY":"Oakland", "CITY_ASCII":"Oakland", "LAT":41.0313, "LNG":-74.2408, "COUNTRY":"United States", "ISO2":"US", "ISO3":"USA", "STATE_PROVINCE":"NEW JERSEY", "CAPTIAL":"nan", "POPULATION":12926.0, "CITY_ID":1840000912, "STATE_ID":30},
 {"CITY":"Old Tappan", "CITY_ASCII":"Old Tappan", "LAT":41.0163, "LNG":-73.9856, "COUNTRY":"United States", "ISO2":"US", "ISO3":"USA", "STATE_PROVINCE":"NEW JERSEY", "CAPTIAL":"nan", "POPULATION":5894.0, "CITY_ID":1840000913, "STATE_ID":30},
 {"CITY":"Oradell", "CITY_ASCII":"Oradell", "LAT":40.9562, "LNG":-74.0314, "COUNTRY":"United States", "ISO2":"US", "ISO3":"USA", "STATE_PROVINCE":"NEW JERSEY", "CAPTIAL":"nan", "POPULATION":8131.0, "CITY_ID":1840000914, "STATE_ID":30},
 {"CITY":"Palisades Park", "CITY_ASCII":"Palisades Park", "LAT":40.8472, "LNG":-73.9967, "COUNTRY":"United States", "ISO2":"US", "ISO3":"USA", "STATE_PROVINCE":"NEW JERSEY", "CAPTIAL":"nan", "POPULATION":20715.0, "CITY_ID":1840000915, "STATE_ID":30},
 {"CITY":"Paramus", "CITY_ASCII":"Paramus", "LAT":40.9455, "LNG":-74.0712, "COUNTRY":"United States", "ISO2":"US", "ISO3":"USA", "STATE_PROVINCE":"NEW JERSEY", "CAPTIAL":"nan", "POPULATION":26264.0, "CITY_ID":1840000916, "STATE_ID":30},
 {"CITY":"Park Ridge", "CITY_ASCII":"Park Ridge", "LAT":41.0353, "LNG":-74.0423, "COUNTRY":"United States", "ISO2":"US", "ISO3":"USA", "STATE_PROVINCE":"NEW JERSEY", "CAPTIAL":"nan", "POPULATION":8694.0, "CITY_ID":1840000917, "STATE_ID":30},
 {"CITY":"Tenafly", "CITY_ASCII":"Tenafly", "LAT":40.9175, "LNG":-73.9531, "COUNTRY":"United States", "ISO2":"US", "ISO3":"USA", "STATE_PROVINCE":"NEW JERSEY", "CAPTIAL":"nan", "POPULATION":14453.0, "CITY_ID":1840000918, "STATE_ID":30},
 {"CITY":"Upper Saddle River", "CITY_ASCII":"Upper Saddle River", "LAT":41.0633, "LNG":-74.0986, "COUNTRY":"United States", "ISO2":"US", "ISO3":"USA", "STATE_PROVINCE":"NEW JERSEY", "CAPTIAL":"nan", "POPULATION":8205.0, "CITY_ID":1840000920, "STATE_ID":30},
 {"CITY":"Waldwick", "CITY_ASCII":"Waldwick", "LAT":41.0134, "LNG":-74.1259, "COUNTRY":"United States", "ISO2":"US", "ISO3":"USA", "STATE_PROVINCE":"NEW JERSEY", "CAPTIAL":"nan", "POPULATION":10108.0, "CITY_ID":1840000921, "STATE_ID":30},
 {"CITY":"Wallington", "CITY_ASCII":"Wallington", "LAT":40.8535, "LNG":-74.1069, "COUNTRY":"United States", "ISO2":"US", "ISO3":"USA", "STATE_PROVINCE":"NEW JERSEY", "CAPTIAL":"nan", "POPULATION":11495.0, "CITY_ID":1840000922, "STATE_ID":30},
 {"CITY":"Westwood", "CITY_ASCII":"Westwood", "LAT":40.9878, "LNG":-74.0308, "COUNTRY":"United States", "ISO2":"US", "ISO3":"USA", "STATE_PROVINCE":"NEW JERSEY", "CAPTIAL":"nan", "POPULATION":11078.0, "CITY_ID":1840000923, "STATE_ID":30},
 {"CITY":"Woodcliff Lake", "CITY_ASCII":"Woodcliff Lake", "LAT":41.0253, "LNG":-74.0603, "COUNTRY":"United States", "ISO2":"US", "ISO3":"USA", "STATE_PROVINCE":"NEW JERSEY", "CAPTIAL":"nan", "POPULATION":5839.0, "CITY_ID":1840000924, "STATE_ID":30},
 {"CITY":"Wood-Ridge", "CITY_ASCII":"Wood-Ridge", "LAT":40.8507, "LNG":-74.0878, "COUNTRY":"United States", "ISO2":"US", "ISO3":"USA", "STATE_PROVINCE":"NEW JERSEY", "CAPTIAL":"nan", "POPULATION":9294.0, "CITY_ID":1840000925, "STATE_ID":30},
 {"CITY":"Campbell", "CITY_ASCII":"Campbell", "LAT":41.0777, "LNG":-80.5904, "COUNTRY":"United States", "ISO2":"US", "ISO3":"USA", "STATE_PROVINCE":"OHIO", "CAPTIAL":"nan", "POPULATION":7785.0, "CITY_ID":1840000926, "STATE_ID":35},
 {"CITY":"Jim Thorpe", "CITY_ASCII":"Jim Thorpe", "LAT":40.8712, "LNG":-75.7433, "COUNTRY":"United States", "ISO2":"US", "ISO3":"USA", "STATE_PROVINCE":"PENNSYLVANIA", "CAPTIAL":"nan", "POPULATION":5449.0, "CITY_ID":1840000931, "STATE_ID":38},
 {"CITY":"Lehighton", "CITY_ASCII":"Lehighton", "LAT":40.8306, "LNG":-75.7166, "COUNTRY":"United States", "ISO2":"US", "ISO3":"USA", "STATE_PROVINCE":"PENNSYLVANIA", "CAPTIAL":"nan", "POPULATION":5313.0, "CITY_ID":1840000933, "STATE_ID":38},
 {"CITY":"Athens", "CITY_ASCII":"Athens", "LAT":34.7847, "LNG":-86.951, "COUNTRY":"United States", "ISO2":"US", "ISO3":"USA", "STATE_PROVINCE":"ALABAMA", "CAPTIAL":"nan", "POPULATION":31187.0, "CITY_ID":1840000935, "STATE_ID":1},
 {"CITY":"Ellwood City", "CITY_ASCII":"Ellwood City", "LAT":40.8619, "LNG":-80.283, "COUNTRY":"United States", "ISO2":"US", "ISO3":"USA", "STATE_PROVINCE":"PENNSYLVANIA", "CAPTIAL":"nan", "POPULATION":11962.0, "CITY_ID":1840000937, "STATE_ID":38},
 {"CITY":"New Castle", "CITY_ASCII":"New Castle", "LAT":40.9956, "LNG":-80.3459, "COUNTRY":"United States", "ISO2":"US", "ISO3":"USA", "STATE_PROVINCE":"PENNSYLVANIA", "CAPTIAL":"nan", "POPULATION":38930.0, "CITY_ID":1840000938, "STATE_ID":38},
 {"CITY":"Phillipsburg", "CITY_ASCII":"Phillipsburg", "LAT":40.6895, "LNG":-75.1821, "COUNTRY":"United States", "ISO2":"US", "ISO3":"USA", "STATE_PROVINCE":"NEW JERSEY", "CAPTIAL":"nan", "POPULATION":14212.0, "CITY_ID":1840000944, "STATE_ID":30},
 {"CITY":"Washington", "CITY_ASCII":"Washington", "LAT":40.7587, "LNG":-74.9825, "COUNTRY":"United States", "ISO2":"US", "ISO3":"USA", "STATE_PROVINCE":"NEW JERSEY", "CAPTIAL":"nan", "POPULATION":15357.0, "CITY_ID":1840000945, "STATE_ID":30},
 {"CITY":"Boonton", "CITY_ASCII":"Boonton", "LAT":40.9047, "LNG":-74.4048, "COUNTRY":"United States", "ISO2":"US", "ISO3":"USA", "STATE_PROVINCE":"NEW JERSEY", "CAPTIAL":"nan", "POPULATION":8919.0, "CITY_ID":1840000946, "STATE_ID":30},
 {"CITY":"Butler", "CITY_ASCII":"Butler", "LAT":40.9989, "LNG":-74.3471, "COUNTRY":"United States", "ISO2":"US", "ISO3":"USA", "STATE_PROVINCE":"NEW JERSEY", "CAPTIAL":"nan", "POPULATION":7654.0, "CITY_ID":1840000947, "STATE_ID":30},
 {"CITY":"Chatham", "CITY_ASCII":"Chatham", "LAT":40.7273, "LNG":-74.4289, "COUNTRY":"United States", "ISO2":"US", "ISO3":"USA", "STATE_PROVINCE":"NEW JERSEY", "CAPTIAL":"nan", "POPULATION":10299.0, "CITY_ID":1840000948, "STATE_ID":30},
 {"CITY":"Chester", "CITY_ASCII":"Chester", "LAT":40.7795, "LNG":-74.6841, "COUNTRY":"United States", "ISO2":"US", "ISO3":"USA", "STATE_PROVINCE":"NEW JERSEY", "CAPTIAL":"nan", "POPULATION":7783.0, "CITY_ID":1840000949, "STATE_ID":30},
 {"CITY":"Rockaway", "CITY_ASCII":"Rockaway", "LAT":40.9602, "LNG":-74.4988, "COUNTRY":"United States", "ISO2":"US", "ISO3":"USA", "STATE_PROVINCE":"NEW JERSEY", "CAPTIAL":"nan", "POPULATION":25069.0, "CITY_ID":1840000951, "STATE_ID":30},
 {"CITY":"Kinnelon", "CITY_ASCII":"Kinnelon", "LAT":40.9847, "LNG":-74.3862, "COUNTRY":"United States", "ISO2":"US", "ISO3":"USA", "STATE_PROVINCE":"NEW JERSEY", "CAPTIAL":"nan", "POPULATION":9896.0, "CITY_ID":1840000952, "STATE_ID":30},
 {"CITY":"Lincoln Park", "CITY_ASCII":"Lincoln Park", "LAT":40.9239, "LNG":-74.3035, "COUNTRY":"United States", "ISO2":"US", "ISO3":"USA", "STATE_PROVINCE":"NEW JERSEY", "CAPTIAL":"nan", "POPULATION":10111.0, "CITY_ID":1840000953, "STATE_ID":30},
 {"CITY":"Wharton", "CITY_ASCII":"Wharton", "LAT":40.8999, "LNG":-74.5808, "COUNTRY":"United States", "ISO2":"US", "ISO3":"USA", "STATE_PROVINCE":"NEW JERSEY", "CAPTIAL":"nan", "POPULATION":6369.0, "CITY_ID":1840000955, "STATE_ID":30},
 {"CITY":"Grand Island", "CITY_ASCII":"Grand Island", "LAT":40.9214, "LNG":-98.3584, "COUNTRY":"United States", "ISO2":"US", "ISO3":"USA", "STATE_PROVINCE":"NEBRASKA", "CAPTIAL":"nan", "POPULATION":53296.0, "CITY_ID":1840000956, "STATE_ID":27},
 {"CITY":"Kearney", "CITY_ASCII":"Kearney", "LAT":40.701, "LNG":-99.0834, "COUNTRY":"United States", "ISO2":"US", "ISO3":"USA", "STATE_PROVINCE":"NEBRASKA", "CAPTIAL":"nan", "POPULATION":34418.0, "CITY_ID":1840000957, "STATE_ID":27},
 {"CITY":"Bay Minette", "CITY_ASCII":"Bay Minette", "LAT":30.893, "LNG":-87.7912, "COUNTRY":"United States", "ISO2":"US", "ISO3":"USA", "STATE_PROVINCE":"ALABAMA", "CAPTIAL":"nan", "POPULATION":9354.0, "CITY_ID":1840000959, "STATE_ID":1},
 {"CITY":"Mansfield", "CITY_ASCII":"Mansfield", "LAT":40.7656, "LNG":-82.5275, "COUNTRY":"United States", "ISO2":"US", "ISO3":"USA", "STATE_PROVINCE":"OHIO", "CAPTIAL":"nan", "POPULATION":73326.0, "CITY_ID":1840000960, "STATE_ID":35},
 {"CITY":"Wooster", "CITY_ASCII":"Wooster", "LAT":40.8171, "LNG":-81.9335, "COUNTRY":"United States", "ISO2":"US", "ISO3":"USA", "STATE_PROVINCE":"OHIO", "CAPTIAL":"nan", "POPULATION":30750.0, "CITY_ID":1840000961, "STATE_ID":35},
 {"CITY":"Alliance", "CITY_ASCII":"Alliance", "LAT":40.9107, "LNG":-81.1189, "COUNTRY":"United States", "ISO2":"US", "ISO3":"USA", "STATE_PROVINCE":"OHIO", "CAPTIAL":"nan", "POPULATION":31255.0, "CITY_ID":1840000962, "STATE_ID":35},
 {"CITY":"Canton", "CITY_ASCII":"Canton", "LAT":40.8075, "LNG":-81.3677, "COUNTRY":"United States", "ISO2":"US", "ISO3":"USA", "STATE_PROVINCE":"OHIO", "CAPTIAL":"nan", "POPULATION":269418.0, "CITY_ID":1840000963, "STATE_ID":35},
 {"CITY":"Louisville", "CITY_ASCII":"Louisville", "LAT":40.8371, "LNG":-81.2643, "COUNTRY":"United States", "ISO2":"US", "ISO3":"USA", "STATE_PROVINCE":"OHIO", "CAPTIAL":"nan", "POPULATION":9360.0, "CITY_ID":1840000964, "STATE_ID":35},
 {"CITY":"Massillon", "CITY_ASCII":"Massillon", "LAT":40.7838, "LNG":-81.5254, "COUNTRY":"United States", "ISO2":"US", "ISO3":"USA", "STATE_PROVINCE":"OHIO", "CAPTIAL":"nan", "POPULATION":32584.0, "CITY_ID":1840000965, "STATE_ID":35},
 {"CITY":"Bangor", "CITY_ASCII":"Bangor", "LAT":40.8678, "LNG":-75.2085, "COUNTRY":"United States", "ISO2":"US", "ISO3":"USA", "STATE_PROVINCE":"PENNSYLVANIA", "CAPTIAL":"nan", "POPULATION":5228.0, "CITY_ID":1840000966, "STATE_ID":38},
 {"CITY":"Easton", "CITY_ASCII":"Easton", "LAT":40.6858, "LNG":-75.2209, "COUNTRY":"United States", "ISO2":"US", "ISO3":"USA", "STATE_PROVINCE":"PENNSYLVANIA", "CAPTIAL":"nan", "POPULATION":27189.0, "CITY_ID":1840000970, "STATE_ID":38},
 {"CITY":"Hellertown", "CITY_ASCII":"Hellertown", "LAT":40.5811, "LNG":-75.3378, "COUNTRY":"United States", "ISO2":"US", "ISO3":"USA", "STATE_PROVINCE":"PENNSYLVANIA", "CAPTIAL":"nan", "POPULATION":5831.0, "CITY_ID":1840000973, "STATE_ID":38},
 {"CITY":"Nazareth", "CITY_ASCII":"Nazareth", "LAT":40.74, "LNG":-75.3132, "COUNTRY":"United States", "ISO2":"US", "ISO3":"USA", "STATE_PROVINCE":"PENNSYLVANIA", "CAPTIAL":"nan", "POPULATION":5702.0, "CITY_ID":1840000974, "STATE_ID":38},
 {"CITY":"Northampton", "CITY_ASCII":"Northampton", "LAT":40.6866, "LNG":-75.4904, "COUNTRY":"United States", "ISO2":"US", "ISO3":"USA", "STATE_PROVINCE":"PENNSYLVANIA", "CAPTIAL":"nan", "POPULATION":9870.0, "CITY_ID":1840000975, "STATE_ID":38},
 {"CITY":"Wilson", "CITY_ASCII":"Wilson", "LAT":40.6844, "LNG":-75.2407, "COUNTRY":"United States", "ISO2":"US", "ISO3":"USA", "STATE_PROVINCE":"PENNSYLVANIA", "CAPTIAL":"nan", "POPULATION":7807.0, "CITY_ID":1840000984, "STATE_ID":38},
 {"CITY":"Bethlehem", "CITY_ASCII":"Bethlehem", "LAT":40.6266, "LNG":-75.3679, "COUNTRY":"United States", "ISO2":"US", "ISO3":"USA", "STATE_PROVINCE":"PENNSYLVANIA", "CAPTIAL":"nan", "POPULATION":75815.0, "CITY_ID":1840000986, "STATE_ID":38},
 {"CITY":"Glen Cove", "CITY_ASCII":"Glen Cove", "LAT":40.8709, "LNG":-73.6287, "COUNTRY":"United States", "ISO2":"US", "ISO3":"USA", "STATE_PROVINCE":"NEW YORK", "CAPTIAL":"nan", "POPULATION":27166.0, "CITY_ID":1840000987, "STATE_ID":32},
 {"CITY":"Long Beach", "CITY_ASCII":"Long Beach", "LAT":40.5887, "LNG":-73.666, "COUNTRY":"United States", "ISO2":"US", "ISO3":"USA", "STATE_PROVINCE":"NEW YORK", "CAPTIAL":"nan", "POPULATION":33454.0, "CITY_ID":1840000988, "STATE_ID":32},
 {"CITY":"Blairsville", "CITY_ASCII":"Blairsville", "LAT":40.4325, "LNG":-79.2599, "COUNTRY":"United States", "ISO2":"US", "ISO3":"USA", "STATE_PROVINCE":"PENNSYLVANIA", "CAPTIAL":"nan", "POPULATION":6654.0, "CITY_ID":1840000990, "STATE_ID":38},
 {"CITY":"Indiana", "CITY_ASCII":"Indiana", "LAT":40.622, "LNG":-79.1552, "COUNTRY":"United States", "ISO2":"US", "ISO3":"USA", "STATE_PROVINCE":"PENNSYLVANIA", "CAPTIAL":"nan", "POPULATION":27142.0, "CITY_ID":1840000997, "STATE_ID":38},
 {"CITY":"Roseland", "CITY_ASCII":"Roseland", "LAT":40.8208, "LNG":-74.3085, "COUNTRY":"United States", "ISO2":"US", "ISO3":"USA", "STATE_PROVINCE":"NEW JERSEY", "CAPTIAL":"nan", "POPULATION":5835.0, "CITY_ID":1840000998, "STATE_ID":30},
 {"CITY":"Summit", "CITY_ASCII":"Summit", "LAT":40.7154, "LNG":-74.3647, "COUNTRY":"United States", "ISO2":"US", "ISO3":"USA", "STATE_PROVINCE":"NEW JERSEY", "CAPTIAL":"nan", "POPULATION":21897.0, "CITY_ID":1840000999, "STATE_ID":30},
 {"CITY":"Centerville", "CITY_ASCII":"Centerville", "LAT":40.7294, "LNG":-92.8718, "COUNTRY":"United States", "ISO2":"US", "ISO3":"USA", "STATE_PROVINCE":"IOWA", "CAPTIAL":"nan", "POPULATION":5445.0, "CITY_ID":1840001006, "STATE_ID":15},
 {"CITY":"Aliquippa", "CITY_ASCII":"Aliquippa", "LAT":40.6155, "LNG":-80.2547, "COUNTRY":"United States", "ISO2":"US", "ISO3":"USA", "STATE_PROVINCE":"PENNSYLVANIA", "CAPTIAL":"nan", "POPULATION":8844.0, "CITY_ID":1840001009, "STATE_ID":38},
 {"CITY":"Ambridge", "CITY_ASCII":"Ambridge", "LAT":40.5922, "LNG":-80.2265, "COUNTRY":"United States", "ISO2":"US", "ISO3":"USA", "STATE_PROVINCE":"PENNSYLVANIA", "CAPTIAL":"nan", "POPULATION":6601.0, "CITY_ID":1840001010, "STATE_ID":38},
 {"CITY":"Beaver Falls", "CITY_ASCII":"Beaver Falls", "LAT":40.762, "LNG":-80.3225, "COUNTRY":"United States", "ISO2":"US", "ISO3":"USA", "STATE_PROVINCE":"PENNSYLVANIA", "CAPTIAL":"nan", "POPULATION":8332.0, "CITY_ID":1840001013, "STATE_ID":38},
 {"CITY":"Monaca", "CITY_ASCII":"Monaca", "LAT":40.6833, "LNG":-80.2736, "COUNTRY":"United States", "ISO2":"US", "ISO3":"USA", "STATE_PROVINCE":"PENNSYLVANIA", "CAPTIAL":"nan", "POPULATION":5421.0, "CITY_ID":1840001025, "STATE_ID":38},
 {"CITY":"New Brighton", "CITY_ASCII":"New Brighton", "LAT":40.7355, "LNG":-80.3091, "COUNTRY":"United States", "ISO2":"US", "ISO3":"USA", "STATE_PROVINCE":"PENNSYLVANIA", "CAPTIAL":"nan", "POPULATION":5679.0, "CITY_ID":1840001026, "STATE_ID":38},
 {"CITY":"Secaucus", "CITY_ASCII":"Secaucus", "LAT":40.781, "LNG":-74.0659, "COUNTRY":"United States", "ISO2":"US", "ISO3":"USA", "STATE_PROVINCE":"NEW JERSEY", "CAPTIAL":"nan", "POPULATION":21893.0, "CITY_ID":1840001033, "STATE_ID":30},
 {"CITY":"Union City", "CITY_ASCII":"Union City", "LAT":40.7674, "LNG":-74.0323, "COUNTRY":"United States", "ISO2":"US", "ISO3":"USA", "STATE_PROVINCE":"NEW JERSEY", "CAPTIAL":"nan", "POPULATION":67982.0, "CITY_ID":1840001034, "STATE_ID":30},
 {"CITY":"West New York", "CITY_ASCII":"West New York", "LAT":40.7856, "LNG":-74.0093, "COUNTRY":"United States", "ISO2":"US", "ISO3":"USA", "STATE_PROVINCE":"NEW JERSEY", "CAPTIAL":"nan", "POPULATION":52723.0, "CITY_ID":1840001035, "STATE_ID":30},
 {"CITY":"Keokuk", "CITY_ASCII":"Keokuk", "LAT":40.4095, "LNG":-91.403, "COUNTRY":"United States", "ISO2":"US", "ISO3":"USA", "STATE_PROVINCE":"IOWA", "CAPTIAL":"nan", "POPULATION":12635.0, "CITY_ID":1840001036, "STATE_ID":15},
 {"CITY":"Lebanon", "CITY_ASCII":"Lebanon", "LAT":40.7278, "LNG":-74.8903, "COUNTRY":"United States", "ISO2":"US", "ISO3":"USA", "STATE_PROVINCE":"NEW JERSEY", "CAPTIAL":"nan", "POPULATION":6124.0, "CITY_ID":1840001040, "STATE_ID":30},
 {"CITY":"Allentown", "CITY_ASCII":"Allentown", "LAT":40.5961, "LNG":-75.4756, "COUNTRY":"United States", "ISO2":"US", "ISO3":"USA", "STATE_PROVINCE":"PENNSYLVANIA", "CAPTIAL":"nan", "POPULATION":683794.0, "CITY_ID":1840001044, "STATE_ID":38},
 {"CITY":"Catasauqua", "CITY_ASCII":"Catasauqua", "LAT":40.6531, "LNG":-75.4643, "COUNTRY":"United States", "ISO2":"US", "ISO3":"USA", "STATE_PROVINCE":"PENNSYLVANIA", "CAPTIAL":"nan", "POPULATION":6599.0, "CITY_ID":1840001045, "STATE_ID":38},
 {"CITY":"Emmaus", "CITY_ASCII":"Emmaus", "LAT":40.5352, "LNG":-75.4978, "COUNTRY":"United States", "ISO2":"US", "ISO3":"USA", "STATE_PROVINCE":"PENNSYLVANIA", "CAPTIAL":"nan", "POPULATION":11467.0, "CITY_ID":1840001048, "STATE_ID":38},
 {"CITY":"Bernardsville", "CITY_ASCII":"Bernardsville", "LAT":40.7268, "LNG":-74.5918, "COUNTRY":"United States", "ISO2":"US", "ISO3":"USA", "STATE_PROVINCE":"NEW JERSEY", "CAPTIAL":"nan", "POPULATION":7594.0, "CITY_ID":1840001052, "STATE_ID":30},
 {"CITY":"Bound Brook", "CITY_ASCII":"Bound Brook", "LAT":40.5676, "LNG":-74.5383, "COUNTRY":"United States", "ISO2":"US", "ISO3":"USA", "STATE_PROVINCE":"NEW JERSEY", "CAPTIAL":"nan", "POPULATION":10180.0, "CITY_ID":1840001053, "STATE_ID":30},
 {"CITY":"Somerville", "CITY_ASCII":"Somerville", "LAT":40.5696, "LNG":-74.6092, "COUNTRY":"United States", "ISO2":"US", "ISO3":"USA", "STATE_PROVINCE":"NEW JERSEY", "CAPTIAL":"nan", "POPULATION":12063.0, "CITY_ID":1840001056, "STATE_ID":30},
 {"CITY":"North Plainfield", "CITY_ASCII":"North Plainfield", "LAT":40.6209, "LNG":-74.4386, "COUNTRY":"United States", "ISO2":"US", "ISO3":"USA", "STATE_PROVINCE":"NEW JERSEY", "CAPTIAL":"nan", "POPULATION":21289.0, "CITY_ID":1840001059, "STATE_ID":30},
 {"CITY":"Watchung", "CITY_ASCII":"Watchung", "LAT":40.6432, "LNG":-74.4391, "COUNTRY":"United States", "ISO2":"US", "ISO3":"USA", "STATE_PROVINCE":"NEW JERSEY", "CAPTIAL":"nan", "POPULATION":6006.0, "CITY_ID":1840001061, "STATE_ID":30},
 {"CITY":"Huntingdon", "CITY_ASCII":"Huntingdon", "LAT":40.5, "LNG":-78.0097, "COUNTRY":"United States", "ISO2":"US", "ISO3":"USA", "STATE_PROVINCE":"PENNSYLVANIA", "CAPTIAL":"nan", "POPULATION":11134.0, "CITY_ID":1840001068, "STATE_ID":38},
 {"CITY":"Altoona", "CITY_ASCII":"Altoona", "LAT":40.5082, "LNG":-78.4007, "COUNTRY":"United States", "ISO2":"US", "ISO3":"USA", "STATE_PROVINCE":"PENNSYLVANIA", "CAPTIAL":"nan", "POPULATION":74829.0, "CITY_ID":1840001080, "STATE_ID":38},
 {"CITY":"Hollidaysburg", "CITY_ASCII":"Hollidaysburg", "LAT":40.4311, "LNG":-78.393, "COUNTRY":"United States", "ISO2":"US", "ISO3":"USA", "STATE_PROVINCE":"PENNSYLVANIA", "CAPTIAL":"nan", "POPULATION":5674.0, "CITY_ID":1840001083, "STATE_ID":38},
 {"CITY":"Roaring Spring", "CITY_ASCII":"Roaring Spring", "LAT":40.3348, "LNG":-78.3958, "COUNTRY":"United States", "ISO2":"US", "ISO3":"USA", "STATE_PROVINCE":"PENNSYLVANIA", "CAPTIAL":"nan", "POPULATION":6718.0, "CITY_ID":1840001086, "STATE_ID":38},
 {"CITY":"Tyrone", "CITY_ASCII":"Tyrone", "LAT":40.6764, "LNG":-78.246, "COUNTRY":"United States", "ISO2":"US", "ISO3":"USA", "STATE_PROVINCE":"PENNSYLVANIA", "CAPTIAL":"nan", "POPULATION":7151.0, "CITY_ID":1840001087, "STATE_ID":38},
 {"CITY":"Plainfield", "CITY_ASCII":"Plainfield", "LAT":40.6154, "LNG":-74.4157, "COUNTRY":"United States", "ISO2":"US", "ISO3":"USA", "STATE_PROVINCE":"NEW JERSEY", "CAPTIAL":"nan", "POPULATION":50317.0, "CITY_ID":1840001090, "STATE_ID":30},
 {"CITY":"Rahway", "CITY_ASCII":"Rahway", "LAT":40.6077, "LNG":-74.2807, "COUNTRY":"United States", "ISO2":"US", "ISO3":"USA", "STATE_PROVINCE":"NEW JERSEY", "CAPTIAL":"nan", "POPULATION":29895.0, "CITY_ID":1840001091, "STATE_ID":30},
 {"CITY":"Roselle", "CITY_ASCII":"Roselle", "LAT":40.6527, "LNG":-74.2599, "COUNTRY":"United States", "ISO2":"US", "ISO3":"USA", "STATE_PROVINCE":"NEW JERSEY", "CAPTIAL":"nan", "POPULATION":21811.0, "CITY_ID":1840001092, "STATE_ID":30},
 {"CITY":"Roselle Park", "CITY_ASCII":"Roselle Park", "LAT":40.6653, "LNG":-74.2666, "COUNTRY":"United States", "ISO2":"US", "ISO3":"USA", "STATE_PROVINCE":"NEW JERSEY", "CAPTIAL":"nan", "POPULATION":13588.0, "CITY_ID":1840001093, "STATE_ID":30},
 {"CITY":"Linden", "CITY_ASCII":"Linden", "LAT":40.6251, "LNG":-74.2381, "COUNTRY":"United States", "ISO2":"US", "ISO3":"USA", "STATE_PROVINCE":"NEW JERSEY", "CAPTIAL":"nan", "POPULATION":42361.0, "CITY_ID":1840001094, "STATE_ID":30},
 {"CITY":"New Providence", "CITY_ASCII":"New Providence", "LAT":40.6996, "LNG":-74.4034, "COUNTRY":"United States", "ISO2":"US", "ISO3":"USA", "STATE_PROVINCE":"NEW JERSEY", "CAPTIAL":"nan", "POPULATION":13595.0, "CITY_ID":1840001095, "STATE_ID":30},
 {"CITY":"Westfield", "CITY_ASCII":"Westfield", "LAT":40.6515, "LNG":-74.3433, "COUNTRY":"United States", "ISO2":"US", "ISO3":"USA", "STATE_PROVINCE":"NEW JERSEY", "CAPTIAL":"nan", "POPULATION":29512.0, "CITY_ID":1840001096, "STATE_ID":30},
 {"CITY":"Northern Cambria", "CITY_ASCII":"Northern Cambria", "LAT":40.6561, "LNG":-78.7784, "COUNTRY":"United States", "ISO2":"US", "ISO3":"USA", "STATE_PROVINCE":"PENNSYLVANIA", "CAPTIAL":"nan", "POPULATION":5981.0, "CITY_ID":1840001097, "STATE_ID":38},
 {"CITY":"Cresson", "CITY_ASCII":"Cresson", "LAT":40.4626, "LNG":-78.5866, "COUNTRY":"United States", "ISO2":"US", "ISO3":"USA", "STATE_PROVINCE":"PENNSYLVANIA", "CAPTIAL":"nan", "POPULATION":10078.0, "CITY_ID":1840001105, "STATE_ID":38},
 {"CITY":"Johnstown", "CITY_ASCII":"Johnstown", "LAT":40.3258, "LNG":-78.9193, "COUNTRY":"United States", "ISO2":"US", "ISO3":"USA", "STATE_PROVINCE":"PENNSYLVANIA", "CAPTIAL":"nan", "POPULATION":63141.0, "CITY_ID":1840001116, "STATE_ID":38},
 {"CITY":"Portage", "CITY_ASCII":"Portage", "LAT":40.3868, "LNG":-78.6746, "COUNTRY":"United States", "ISO2":"US", "ISO3":"USA", "STATE_PROVINCE":"PENNSYLVANIA", "CAPTIAL":"nan", "POPULATION":6546.0, "CITY_ID":1840001122, "STATE_ID":38},
 {"CITY":"Hastings", "CITY_ASCII":"Hastings", "LAT":40.5963, "LNG":-98.3914, "COUNTRY":"United States", "ISO2":"US", "ISO3":"USA", "STATE_PROVINCE":"NEBRASKA", "CAPTIAL":"nan", "POPULATION":24692.0, "CITY_ID":1840001130, "STATE_ID":27},
 {"CITY":"Holdrege", "CITY_ASCII":"Holdrege", "LAT":40.4395, "LNG":-99.3773, "COUNTRY":"United States", "ISO2":"US", "ISO3":"USA", "STATE_PROVINCE":"NEBRASKA", "CAPTIAL":"nan", "POPULATION":5408.0, "CITY_ID":1840001131, "STATE_ID":27},
 {"CITY":"Lower Burrell", "CITY_ASCII":"Lower Burrell", "LAT":40.5818, "LNG":-79.7141, "COUNTRY":"United States", "ISO2":"US", "ISO3":"USA", "STATE_PROVINCE":"PENNSYLVANIA", "CAPTIAL":"nan", "POPULATION":11078.0, "CITY_ID":1840001132, "STATE_ID":38},
 {"CITY":"Greensburg", "CITY_ASCII":"Greensburg", "LAT":40.3113, "LNG":-79.5444, "COUNTRY":"United States", "ISO2":"US", "ISO3":"USA", "STATE_PROVINCE":"PENNSYLVANIA", "CAPTIAL":"nan", "POPULATION":14113.0, "CITY_ID":1840001137, "STATE_ID":38},
 {"CITY":"Jeannette", "CITY_ASCII":"Jeannette", "LAT":40.3277, "LNG":-79.6139, "COUNTRY":"United States", "ISO2":"US", "ISO3":"USA", "STATE_PROVINCE":"PENNSYLVANIA", "CAPTIAL":"nan", "POPULATION":9074.0, "CITY_ID":1840001141, "STATE_ID":38},
 {"CITY":"Latrobe", "CITY_ASCII":"Latrobe", "LAT":40.3125, "LNG":-79.3826, "COUNTRY":"United States", "ISO2":"US", "ISO3":"USA", "STATE_PROVINCE":"PENNSYLVANIA", "CAPTIAL":"nan", "POPULATION":7830.0, "CITY_ID":1840001142, "STATE_ID":38},
 {"CITY":"Ligonier", "CITY_ASCII":"Ligonier", "LAT":40.2348, "LNG":-79.2137, "COUNTRY":"United States", "ISO2":"US", "ISO3":"USA", "STATE_PROVINCE":"PENNSYLVANIA", "CAPTIAL":"nan", "POPULATION":6441.0, "CITY_ID":1840001143, "STATE_ID":38},
 {"CITY":"Monessen", "CITY_ASCII":"Monessen", "LAT":40.1519, "LNG":-79.8828, "COUNTRY":"United States", "ISO2":"US", "ISO3":"USA", "STATE_PROVINCE":"PENNSYLVANIA", "CAPTIAL":"nan", "POPULATION":61960.0, "CITY_ID":1840001146, "STATE_ID":38},
 {"CITY":"Murrysville", "CITY_ASCII":"Murrysville", "LAT":40.4456, "LNG":-79.6555, "COUNTRY":"United States", "ISO2":"US", "ISO3":"USA", "STATE_PROVINCE":"PENNSYLVANIA", "CAPTIAL":"nan", "POPULATION":19590.0, "CITY_ID":1840001148, "STATE_ID":38},
 {"CITY":"New Kensington", "CITY_ASCII":"New Kensington", "LAT":40.5711, "LNG":-79.7521, "COUNTRY":"United States", "ISO2":"US", "ISO3":"USA", "STATE_PROVINCE":"PENNSYLVANIA", "CAPTIAL":"nan", "POPULATION":12292.0, "CITY_ID":1840001151, "STATE_ID":38},
 {"CITY":"Birdsboro", "CITY_ASCII":"Birdsboro", "LAT":40.262, "LNG":-75.8099, "COUNTRY":"United States", "ISO2":"US", "ISO3":"USA", "STATE_PROVINCE":"PENNSYLVANIA", "CAPTIAL":"nan", "POPULATION":5143.0, "CITY_ID":1840001172, "STATE_ID":38},
 {"CITY":"Kutztown", "CITY_ASCII":"Kutztown", "LAT":40.5213, "LNG":-75.7772, "COUNTRY":"United States", "ISO2":"US", "ISO3":"USA", "STATE_PROVINCE":"PENNSYLVANIA", "CAPTIAL":"nan", "POPULATION":10137.0, "CITY_ID":1840001178, "STATE_ID":38},
 {"CITY":"Reading", "CITY_ASCII":"Reading", "LAT":40.34, "LNG":-75.9267, "COUNTRY":"United States", "ISO2":"US", "ISO3":"USA", "STATE_PROVINCE":"PENNSYLVANIA", "CAPTIAL":"nan", "POPULATION":267155.0, "CITY_ID":1840001185, "STATE_ID":38},
 {"CITY":"Shillington", "CITY_ASCII":"Shillington", "LAT":40.3029, "LNG":-75.967, "COUNTRY":"United States", "ISO2":"US", "ISO3":"USA", "STATE_PROVINCE":"PENNSYLVANIA", "CAPTIAL":"nan", "POPULATION":5319.0, "CITY_ID":1840001188, "STATE_ID":38},
 {"CITY":"Wyomissing", "CITY_ASCII":"Wyomissing", "LAT":40.3317, "LNG":-75.9703, "COUNTRY":"United States", "ISO2":"US", "ISO3":"USA", "STATE_PROVINCE":"PENNSYLVANIA", "CAPTIAL":"nan", "POPULATION":10635.0, "CITY_ID":1840001196, "STATE_ID":38},
 {"CITY":"Fox Chapel", "CITY_ASCII":"Fox Chapel", "LAT":40.5247, "LNG":-79.8898, "COUNTRY":"United States", "ISO2":"US", "ISO3":"USA", "STATE_PROVINCE":"PENNSYLVANIA", "CAPTIAL":"nan", "POPULATION":5076.0, "CITY_ID":1840001197, "STATE_ID":38},
 {"CITY":"Franklin Park", "CITY_ASCII":"Franklin Park", "LAT":40.5903, "LNG":-80.0999, "COUNTRY":"United States", "ISO2":"US", "ISO3":"USA", "STATE_PROVINCE":"PENNSYLVANIA", "CAPTIAL":"nan", "POPULATION":14885.0, "CITY_ID":1840001198, "STATE_ID":38},
 {"CITY":"Baldwin", "CITY_ASCII":"Baldwin", "LAT":40.369, "LNG":-79.9668, "COUNTRY":"United States", "ISO2":"US", "ISO3":"USA", "STATE_PROVINCE":"PENNSYLVANIA", "CAPTIAL":"nan", "POPULATION":19554.0, "CITY_ID":1840001201, "STATE_ID":38},
 {"CITY":"Bellevue", "CITY_ASCII":"Bellevue", "LAT":40.4945, "LNG":-80.055, "COUNTRY":"United States", "ISO2":"US", "ISO3":"USA", "STATE_PROVINCE":"PENNSYLVANIA", "CAPTIAL":"nan", "POPULATION":8036.0, "CITY_ID":1840001203, "STATE_ID":38},
 {"CITY":"Bethel Park", "CITY_ASCII":"Bethel Park", "LAT":40.3239, "LNG":-80.0364, "COUNTRY":"United States", "ISO2":"US", "ISO3":"USA", "STATE_PROVINCE":"PENNSYLVANIA", "CAPTIAL":"nan", "POPULATION":32345.0, "CITY_ID":1840001206, "STATE_ID":38},
 {"CITY":"Brentwood", "CITY_ASCII":"Brentwood", "LAT":40.3734, "LNG":-79.9757, "COUNTRY":"United States", "ISO2":"US", "ISO3":"USA", "STATE_PROVINCE":"PENNSYLVANIA", "CAPTIAL":"nan", "POPULATION":9268.0, "CITY_ID":1840001212, "STATE_ID":38},
 {"CITY":"Carnegie", "CITY_ASCII":"Carnegie", "LAT":40.408, "LNG":-80.0861, "COUNTRY":"United States", "ISO2":"US", "ISO3":"USA", "STATE_PROVINCE":"PENNSYLVANIA", "CAPTIAL":"nan", "POPULATION":7806.0, "CITY_ID":1840001214, "STATE_ID":38},
 {"CITY":"Castle Shannon", "CITY_ASCII":"Castle Shannon", "LAT":40.3664, "LNG":-80.0194, "COUNTRY":"United States", "ISO2":"US", "ISO3":"USA", "STATE_PROVINCE":"PENNSYLVANIA", "CAPTIAL":"nan", "POPULATION":8216.0, "CITY_ID":1840001215, "STATE_ID":38},
 {"CITY":"Clairton", "CITY_ASCII":"Clairton", "LAT":40.2976, "LNG":-79.8853, "COUNTRY":"United States", "ISO2":"US", "ISO3":"USA", "STATE_PROVINCE":"PENNSYLVANIA", "CAPTIAL":"nan", "POPULATION":6541.0, "CITY_ID":1840001219, "STATE_ID":38},
 {"CITY":"Coraopolis", "CITY_ASCII":"Coraopolis", "LAT":40.5148, "LNG":-80.1627, "COUNTRY":"United States", "ISO2":"US", "ISO3":"USA", "STATE_PROVINCE":"PENNSYLVANIA", "CAPTIAL":"nan", "POPULATION":5424.0, "CITY_ID":1840001220, "STATE_ID":38},
 {"CITY":"Crafton", "CITY_ASCII":"Crafton", "LAT":40.4333, "LNG":-80.0712, "COUNTRY":"United States", "ISO2":"US", "ISO3":"USA", "STATE_PROVINCE":"PENNSYLVANIA", "CAPTIAL":"nan", "POPULATION":5770.0, "CITY_ID":1840001221, "STATE_ID":38},
 {"CITY":"Dormont", "CITY_ASCII":"Dormont", "LAT":40.3941, "LNG":-80.0377, "COUNTRY":"United States", "ISO2":"US", "ISO3":"USA", "STATE_PROVINCE":"PENNSYLVANIA", "CAPTIAL":"nan", "POPULATION":8282.0, "CITY_ID":1840001222, "STATE_ID":38},
 {"CITY":"Duquesne", "CITY_ASCII":"Duquesne", "LAT":40.3732, "LNG":-79.8502, "COUNTRY":"United States", "ISO2":"US", "ISO3":"USA", "STATE_PROVINCE":"PENNSYLVANIA", "CAPTIAL":"nan", "POPULATION":5557.0, "CITY_ID":1840001224, "STATE_ID":38},
 {"CITY":"Forest Hills", "CITY_ASCII":"Forest Hills", "LAT":40.4251, "LNG":-79.8544, "COUNTRY":"United States", "ISO2":"US", "ISO3":"USA", "STATE_PROVINCE":"PENNSYLVANIA", "CAPTIAL":"nan", "POPULATION":6298.0, "CITY_ID":1840001232, "STATE_ID":38},
 {"CITY":"McKeesport", "CITY_ASCII":"McKeesport", "LAT":40.3419, "LNG":-79.8439, "COUNTRY":"United States", "ISO2":"US", "ISO3":"USA", "STATE_PROVINCE":"PENNSYLVANIA", "CAPTIAL":"nan", "POPULATION":19009.0, "CITY_ID":1840001243, "STATE_ID":38},
 {"CITY":"McKees Rocks", "CITY_ASCII":"McKees Rocks", "LAT":40.4688, "LNG":-80.063, "COUNTRY":"United States", "ISO2":"US", "ISO3":"USA", "STATE_PROVINCE":"PENNSYLVANIA", "CAPTIAL":"nan", "POPULATION":5855.0, "CITY_ID":1840001244, "STATE_ID":38},
 {"CITY":"Munhall", "CITY_ASCII":"Munhall", "LAT":40.3937, "LNG":-79.9004, "COUNTRY":"United States", "ISO2":"US", "ISO3":"USA", "STATE_PROVINCE":"PENNSYLVANIA", "CAPTIAL":"nan", "POPULATION":11006.0, "CITY_ID":1840001247, "STATE_ID":38},